{
	"A038": {
		"Company": "Hella GmbH & Co. KGaA",
		"Corporate_Location_Lat": ,
		"Corporate_Location_Lon": ,
		"Locations": [{
				"body": "\r\n\r\n\r\n\r\n<h3 >HBPO North America, Inc.</h3>\r\n<p>700 Tower Drive, Troy MI 48098, USA</p>\r\n<p><a href=\"http://www.hbpogroup.com\" target=\"_blank\"><span class=\"glyphicon glyphicon-new-window\"></span>http://www.hbpogroup.com</a></p>\r\n<div class=\"text-center\">\r\n\t \r\n</div>",
				"latitude": 42.592899322509766,
				"longitude": -83.1622543334961,
				"title": "HBPO North America, Inc."
			}, {
				"body": "\r\n\r\n\r\n\r\n<h3 >Hella Automotive Mexico S.A. de C.V. </h3>\r\n<p>Priv. Cumbres de Acultzingo 202, Los Pirules, Tlalnepantla, Mexico 54040</p>\r\n<p><a href=\"https://www.hella.com/hella-mx/index.html\" target=\"_blank\"><span class=\"glyphicon glyphicon-new-window\"></span>https://www.hella.com/hella-mx/index.html</a></p>\r\n<div class=\"text-center\">\r\n\t \r\n</div>",
				"latitude": 19.544940948486328,
				"longitude": -99.21830749511719,
				"title": "Hella Automotive Mexico S.A. de C.V. "
			}, {
				"body": "\r\n\r\n\r\n\r\n<h3 >Hellamex, S.A. de C.V.</h3>\r\n<p>Prol. Proton No. 50, Parque Industrial Naucalpan, Mexico City 53489</p>\r\n<p><a href=\"http://www.hella.com\" target=\"_blank\"><span class=\"glyphicon glyphicon-new-window\"></span>http://www.hella.com</a></p>\r\n<div class=\"text-center\">\r\n\t \r\n</div>",
				"latitude": 19.46537208557129,
				"longitude": -99.24835968017578,
				"title": "Hellamex, S.A. de C.V."
			}, {
				"body": "\r\n\r\n\r\n\r\n<h3 >Hella, Inc. USA</h3>\r\n<p>201 Kelly Dive Peachtree City GA 30269, USA</p>\r\n<p><a href=\"http://www.hellausa.com\" target=\"_blank\"><span class=\"glyphicon glyphicon-new-window\"></span>http://www.hellausa.com</a></p>\r\n<div class=\"text-center\">\r\n\t \r\n</div>",
				"latitude": 33.3811149597168,
				"longitude": -84.5776596069336,
				"title": "Hella, Inc. USA"
			}, {
				"body": "\r\n\r\n\r\n\r\n<h3 >HBPO Mexico, S.A. de C.V - Puebla</h3>\r\n<p>Parque Ind. Finsa Nave 15, Cuautlancingo, Puebla 72710, Mexico</p>\r\n<p><a href=\"http://www.hbpogroup.com\" target=\"_blank\"><span class=\"glyphicon glyphicon-new-window\"></span>http://www.hbpogroup.com</a></p>\r\n<div class=\"text-center\">\r\n\t \r\n</div>",
				"latitude": 19.143041610717773,
				"longitude": -98.23497009277344,
				"title": "HBPO Mexico, S.A. de C.V - Puebla"
			}, {
				"body": "\r\n\r\n\r\n\r\n<h3 >Hella Electronics Corp.</h3>\r\n<p>43811 Plymouth Oaks Blvd. Plymouth Twp. MI 48170, USA</p>\r\n<p><a href=\"http://www.hellausa.com\" target=\"_blank\"><span class=\"glyphicon glyphicon-new-window\"></span>http://www.hellausa.com</a></p>\r\n<div class=\"text-center\">\r\n\t \r\n</div>",
				"latitude": 42.387001037597656,
				"longitude": -83.47066497802734,
				"title": "Hella Electronics Corp."
			}, {
				"body": "\r\n\r\n\r\n\r\n<h3 >HBPO Canada Inc.</h3>\r\n<p>2570 Central Ave., Windsor, Ontario, N8W4J5, Canada</p>\r\n<p><a href=\"http://www.hbpogroup.com\" target=\"_blank\"><span class=\"glyphicon glyphicon-new-window\"></span>http://www.hbpogroup.com</a></p>\r\n<div class=\"text-center\">\r\n\t \r\n</div>",
				"latitude": 42.298370361328125,
				"longitude": -82.97444152832031,
				"title": "HBPO Canada Inc."
			}, {
				"body": "\r\n\r\n\r\n\r\n<h3 >HBPO Mexico, S.A. de C.V </h3>\r\n<p>Autopista AUDI KM 12, JIS 1-B Zona Industrial San Jose Chiapa, 75010 San Jose Chiapa, Puebla, Mexico</p>\r\n<p><a href=\"http://www.hbpogroup.com\" target=\"_blank\"><span class=\"glyphicon glyphicon-new-window\"></span>http://www.hbpogroup.com</a></p>\r\n<div class=\"text-center\">\r\n\t \r\n</div>",
				"latitude": 19.206449508666992,
				"longitude": -97.74872589111328,
				"title": "HBPO Mexico, S.A. de C.V "
			}, {
				"body": "\r\n\r\n\r\n\r\n<h3 >HBPO Mexico, S.A. de C.V - Toluca</h3>\r\n<p>Av. Independencia No. 1903, Col. Zona Ind. Toluca C.P 50030, Mexico</p>\r\n<p><a href=\"http://www.hbpogroup.com\" target=\"_blank\"><span class=\"glyphicon glyphicon-new-window\"></span>http://www.hbpogroup.com</a></p>\r\n<div class=\"text-center\">\r\n\t \r\n</div>",
				"latitude": 19.327247619628906,
				"longitude": -99.66563415527344,
				"title": "HBPO Mexico, S.A. de C.V - Toluca"
			}
		],
		"2016 rank": "33",
		"2017 Rank": "45",
		"2017 Sales": "$5,400",
		"2016 Sales": "$5,300",
		"Import ID": "A038",
		"Products": ["Electronic ", " lighting components ", " systems"],
		"Marker Colour": "blue"
	},
	"A039": {
		"Company": "Hitachi Automotive Systems",
		"Corporate_Location_Lat": ,
		"Corporate_Location_Lon": ,
		"Locations": [{
				"body": "\r\n\r\n\r\n\r\n<h3 >Hitachi Automotive Systems Americas, Inc. -Georgia Plant</h3>\r\n<p>1000 Unisia Drive, Monroe, Georgia 30655 U.S.A.</p>\r\n<p><a href=\"http://www.hitachi-automotive.us/Default.html\" target=\"_blank\"><span class=\"glyphicon glyphicon-new-window\"></span>http://www.hitachi-automotive.us/Default.html</a></p>\r\n<div class=\"text-center\">\r\n\t \r\n</div>",
				"latitude": 33.813777923583984,
				"longitude": -83.677978515625,
				"title": "Hitachi Automotive Systems Americas, Inc. -Georgia Plant"
			}, {
				"body": "\r\n\r\n\r\n\r\n<h3 >Hitachi Automotive Systems Mexico, S.A. de C.V.  - Plant 3</h3>\r\n<p>Avenida de las Partidas no. 161Colonia Emiliano ZapataLerma, Estado de Mexico</p>\r\n<p><a href=\"http://www.hitachi.co.jp/\" target=\"_blank\"><span class=\"glyphicon glyphicon-new-window\"></span>http://www.hitachi.co.jp/</a></p>\r\n<div class=\"text-center\">\r\n\t \r\n</div>",
				"latitude": 19.364933013916016,
				"longitude": -99.56619262695312,
				"title": "Hitachi Automotive Systems Mexico, S.A. de C.V.  - Plant 3"
			}, {
				"body": "\r\n\r\n\r\n\r\n<h3 >Electronica Clarion, S.A. de C.V.</h3>\r\n<p>Piedra # 200, Col. Jardines del Pedregal, C.P. 01900, MEXICO D.F.</p>\r\n<p><a href=\"http://www.clarion-mexico.com\" target=\"_blank\"><span class=\"glyphicon glyphicon-new-window\"></span>http://www.clarion-mexico.com</a></p>\r\n<div class=\"text-center\">\r\n\t \r\n</div>",
				"latitude": 19.31096839904785,
				"longitude": -99.20983123779297,
				"title": "Electronica Clarion, S.A. de C.V."
			}, {
				"body": "\r\n\r\n\r\n\r\n<h3 >Hitachi Automotive Systems Americas, Inc. - Kentucky Plant</h3>\r\n<p>955 Warwick Road, Harrodsburg, KY 40330, USA</p>\r\n<p><a href=\"http://www.hitachi-automotive.us/Default.html\" target=\"_blank\"><span class=\"glyphicon glyphicon-new-window\"></span>http://www.hitachi-automotive.us/Default.html</a></p>\r\n<div class=\"text-center\">\r\n\t \r\n</div>",
				"latitude": 37.7784538269043,
				"longitude": -84.84049987792969,
				"title": "Hitachi Automotive Systems Americas, Inc. - Kentucky Plant"
			}, {
				"body": "\r\n\r\n\r\n\r\n<h3 >Hitachi Automotive Systems Mexico, S.A. de C.V.  - Plant 1<br>(Formerly, Unisia Mexicana, </h3>\r\n<p>Avenida del Parque No.8, Parque Industrial Lerma, C.P. 52000 Lerma, Estado de Mexico, Mexico</p>\r\n<p><a href=\"http://www.hitachi-automotive.co.jp\" target=\"_blank\"><span class=\"glyphicon glyphicon-new-window\"></span>http://www.hitachi-automotive.co.jp</a></p>\r\n<div class=\"text-center\">\r\n\t \r\n</div>",
				"latitude": 19.298860549926758,
				"longitude": -99.53077697753906,
				"title": "Hitachi Automotive Systems Mexico, S.A. de C.V.  - Plant 1<br>(Formerly, Unisia Mexicana, "
			}, {
				"body": "\r\n\r\n\r\n\r\n<h3 >Hitachi Automotive Systems Americas, Inc. -Berea</h3>\r\n<p>301 Mayde Road, Berea Industrial Park, Berea, KY 40403 U.S.A.</p>\r\n<p><a href=\"http://www.hitachi-automotive.us/Default.html\" target=\"_blank\"><span class=\"glyphicon glyphicon-new-window\"></span>http://www.hitachi-automotive.us/Default.html</a></p>\r\n<div class=\"text-center\">\r\n\t \r\n</div>",
				"latitude": 37.60399627685547,
				"longitude": -84.31099700927734,
				"title": "Hitachi Automotive Systems Americas, Inc. -Berea"
			}, {
				"body": "\r\n\r\n\r\n\r\n<h3 >Hitachi Automotive Systems Mexico, S.A. de C.<br>(Formerly Hitachi Automotive Systems Quer</h3>\r\n<p>Av. Manufacturas 501, Ampliacion Parque Industrial Queretaro 3a Fase, Santa Rosa Jauregui, C.P. 76220, Queretaro, Mexico</p>\r\n<p><a href=\"http://www.hitachi-automotive.co.jp/en\" target=\"_blank\"><span class=\"glyphicon glyphicon-new-window\"></span>http://www.hitachi-automotive.co.jp/en</a></p>\r\n<div class=\"text-center\">\r\n\t \r\n</div>",
				"latitude": 20.74566650390625,
				"longitude": -100.45510864257812,
				"title": "Hitachi Automotive Systems Mexico, S.A. de C.<br>(Formerly Hitachi Automotive Systems Quer"
			}, {
				"body": "\r\n\r\n\r\n\r\n<h3 >Hitachi Automotive Systems Americas, Inc.</h3>\r\n<p>34500 Grand River Avenue Farmington Hills, MI 48335, USA</p>\r\n<p><a href=\"http://www.hitachi-automotive.us\" target=\"_blank\"><span class=\"glyphicon glyphicon-new-window\"></span>http://www.hitachi-automotive.us</a></p>\r\n<div class=\"text-center\">\r\n\t \r\n</div>",
				"latitude": 42.47081756591797,
				"longitude": -83.3878173828125,
				"title": "Hitachi Automotive Systems Americas, Inc."
			}, {
				"body": "\r\n\r\n\r\n\r\n<h3 >Hitachi Automotive Systems Mexico, S.A. de C.V.\u3000-\u3000Plant No.2</h3>\r\n<p>Av. Industria Automotriz No.12, Ex Hacienda Dona Rosa, Lerma de Villada Parque Industrial Dona Rosa, C.P. 52000, Lerma, Estado de Mexico, Mexico</p>\r\n<p><a href=\"http://www.hitachi-automotive.co.jp\" target=\"_blank\"><span class=\"glyphicon glyphicon-new-window\"></span>http://www.hitachi-automotive.co.jp</a></p>\r\n<div class=\"text-center\">\r\n\t \r\n</div>",
				"latitude": 19.29449462890625,
				"longitude": -99.51589965820312,
				"title": "Hitachi Automotive Systems Mexico, S.A. de C.V.\u3000-\u3000Plant No.2"
			}
		],
		"2016 rank": "25",
		"2017 Rank": "30",
		"2017 Sales": "8,900",
		"2016 Sales": "9,000",
		"Import ID": "A039",
		"Products": ["Engine management", " electric powertrain ", " drive control"],
		"Marker Colour": "blue"
	},
	"A032": {
		"Company": "F-Tech Inc.",
		"Corporate_Location_Lat": 42.563999 ,
		"Corporate_Location_Lon": -83.162293,
		"Locations": [{
				"body": "\r\n\r\n\r\n\r\n<h3 >F&P Manufacturing Inc.</h3>\r\n<p>1 Nolan Road, P.O. Box 4000, Tottenham, ON, L0G 1W0, Canada</p>\r\n<p><a href=\"http://www.fandpmfg.com\" target=\"_blank\"><span class=\"glyphicon glyphicon-new-window\"></span>http://www.fandpmfg.com</a></p>\r\n<div class=\"text-center\">\r\n\t \r\n</div>",
				"latitude": 44.034332275390625,
				"longitude": -79.8016357421875,
				"title": "F&P Manufacturing Inc."
			}, {
				"body": "\r\n\r\n\r\n\r\n<h3 >Johnan America, Inc.</h3>\r\n<p>600 Wilson Parkway, Bardstown, Kentucky 40004 USA</p>\r\n<p><a href=\"http://www.johnanamerica.com\" target=\"_blank\"><span class=\"glyphicon glyphicon-new-window\"></span>http://www.johnanamerica.com</a></p>\r\n<div class=\"text-center\">\r\n\t \r\n</div>",
				"latitude": 37.83839797973633,
				"longitude": -85.47801971435547,
				"title": "Johnan America, Inc."
			}, {
				"body": "\r\n\r\n\r\n\r\n<h3 >F&P America Mfg., Inc.</h3>\r\n<p>2101 Corporate Drive, Troy, Ohio, 45373 USA</p>\r\n<p><a href=\"http://www.fandp.com/\" target=\"_blank\"><span class=\"glyphicon glyphicon-new-window\"></span>http://www.fandp.com/</a></p>\r\n<div class=\"text-center\">\r\n\t \r\n</div>",
				"latitude": 40.06716537475586,
				"longitude": -84.248046875,
				"title": "F&P America Mfg., Inc."
			}, {
				"body": "\r\n\r\n\r\n\r\n<h3 >GrafTech International Ltd.</h3>\r\n<p>12300 Snow Road, Parma, Ohio-44130, USA</p>\r\n<p><a href=\"http://www.graftech.com\" target=\"_blank\"><span class=\"glyphicon glyphicon-new-window\"></span>http://www.graftech.com</a></p>\r\n<div class=\"text-center\">\r\n\t \r\n</div>",
				"latitude": 41.4063720703125,
				"longitude": -81.77584075927734,
				"title": "GrafTech International Ltd."
			}, {
				"body": "\r\n\r\n\r\n\r\n<h3 >POLYTEC FOHA Corp.</h3>\r\n<p>205 Riviera Drive, Unit 7, Markham Ontario L3R 5J8, Canada</p>\r\n\r\n<div class=\"text-center\">\r\n\t \r\n</div>",
				"latitude": 43.833831787109375,
				"longitude": -79.33736419677734,
				"title": "POLYTEC FOHA Corp."
			}, {
				"body": "\r\n\r\n\r\n\r\n<h3 >AFTECH Advanced Fabricating Technology, LLC</h3>\r\n<p>687 Byrne Industrial Dr., Rockford, MI 49341, USA</p>\r\n<p><a href=\"http://www.aftech-intl.com\" target=\"_blank\"><span class=\"glyphicon glyphicon-new-window\"></span>http://www.aftech-intl.com</a></p>\r\n<div class=\"text-center\">\r\n\t \r\n</div>",
				"latitude": 43.135433197021484,
				"longitude": -85.55422973632812,
				"title": "AFTECH Advanced Fabricating Technology, LLC"
			}, {
				"body": "\r\n\r\n\r\n\r\n<h3 >F.E.G. de Queretaro S.A. de C.V.</h3>\r\n<p>Cerrada La Noria No.106 Parque Industrial Queretaro Sta. Rosa Jauregui, Qro. C. P. 76220 Mexico</p>\r\n<p><a href=\"http://www.ftech.co.jp\" target=\"_blank\"><span class=\"glyphicon glyphicon-new-window\"></span>http://www.ftech.co.jp</a></p>\r\n<div class=\"text-center\">\r\n\t \r\n</div>",
				"latitude": 20.81393051147461,
				"longitude": -100.43156433105469,
				"title": "F.E.G. de Queretaro S.A. de C.V."
			}, {
				"body": "\r\n\r\n\r\n\r\n<h3 >F&P America Mfg., Inc. - Georgia (F&P Georgia)</h3>\r\n<p>88 Enterprise Drive Rome Georgia 30161, USA</p>\r\n<p><a href=\"http://www.fandp.com/\" target=\"_blank\"><span class=\"glyphicon glyphicon-new-window\"></span>http://www.fandp.com/</a></p>\r\n<div class=\"text-center\">\r\n\t \r\n</div>",
				"latitude": 34.171546936035156,
				"longitude": -85.19403076171875,
				"title": "F&P America Mfg., Inc. - Georgia (F&P Georgia)"
			}, {
				"body": "\r\n\r\n\r\n\r\n<h3 >Johnan de Mexico, S.A. de C.V.</h3>\r\n<p>Av. Eucalipto No.240 Parque Industrial y de Negocios Las Colinas, Silao, Gto. C. P. 36270, Mexico</p>\r\n<p><a href=\"http://www.johnan-seisakusho.co.jp\" target=\"_blank\"><span class=\"glyphicon glyphicon-new-window\"></span>http://www.johnan-seisakusho.co.jp</a></p>\r\n<div class=\"text-center\">\r\n\t \r\n</div>",
				"latitude": 27.50491714477539,
				"longitude": -109.94911193847656,
				"title": "Johnan de Mexico, S.A. de C.V."
			}, {
				"body": "\r\n\r\n\r\n\r\n<h3 >F&P Mfg. de Mexico S.A. de C.V.</h3>\r\n<p>Calle Santiago 242 Centro Industrial de Guanajuato, Irapuato, Guanajuato, Mexico</p>\r\n<p><a href=\"http://www.fandp.com\" target=\"_blank\"><span class=\"glyphicon glyphicon-new-window\"></span>http://www.fandp.com</a></p>\r\n<div class=\"text-center\">\r\n\t \r\n</div>",
				"latitude": 20.678665161132812,
				"longitude": -101.35449981689453,
				"title": "F&P Mfg. de Mexico S.A. de C.V."
			}, {
				"body": "\r\n\r\n\r\n\r\n<h3 >Koller Group Mexico, S.A. de C.V.</h3>\r\n<p>Nicolas Bravo No. 33, Puebla, Puebla, 72030 Mexico</p>\r\n<p><a href=\"http://www.koller-formenbau.de\" target=\"_blank\"><span class=\"glyphicon glyphicon-new-window\"></span>http://www.koller-formenbau.de</a></p>\r\n<div class=\"text-center\">\r\n\t \r\n</div>",
				"latitude": 19.094144821166992,
				"longitude": -98.19577026367188,
				"title": "Koller Group Mexico, S.A. de C.V."
			}
		],
		"2016 rank": "88",
		"2017 Rank": "83",
		"2017 Sales": "2,042",
		"2016 Sales": "1,821",
		"Import ID": "A032",
		"Products": ["Chassis", " suspension systems", " control arms", " pedal assemblies", " hydroforming"],
		"Marker Colour": "red"
	},
	"A033": {
		"Company": "Gentex Corp.",
		"Corporate_Location_Lat": 42.447655,
		"Corporate_Location_Lon": -83.432871,
		"Locations": [{
				"body": "\r\n\r\n\r\n\r\n<h3 >Gentex Corporation</h3>\r\n<p>600 North Centennial Street, Zeeland, MI 49464 USA</p>\r\n<p><a href=\"http://www.gentex.com\" target=\"_blank\"><span class=\"glyphicon glyphicon-new-window\"></span>http://www.gentex.com</a></p>\r\n<div class=\"text-center\">\r\n\t \r\n</div>",
				"latitude": 42.824222564697266,
				"longitude": -86.01746368408203,
				"title": "Gentex Corporation"
			}
		],
		"2016 rank": "91",
		"2017 Rank": "91",
		"2017 Sales": "$1,758",
		"2016 Sales": "$1,639",
		"Import ID": "A033",
		"Products": ["Interior ", " exterior auto-dimming rearview mirrors", " SmartBeamadvanced lighting-assist", " rear camera displays", " compasses", " LED"],
		"Marker Colour": "red"
	},
	"A030": {
		"Company": "Flex-N-Gate Corp.",
		"Corporate_Location_Lat": 42.497412,
		"Corporate_Location_Lon": -83.352542,
		"Locations": [{
				"body": "\r\n\r\n\r\n\r\n<h3 >Flex-N-Gate Corporation</h3>\r\n<p>1306 East University Ave. Urbana, IL 61802, USA</p>\r\n<p><a href=\"http://www.flex-n-gate.com\" target=\"_blank\"><span class=\"glyphicon glyphicon-new-window\"></span>http://www.flex-n-gate.com</a></p>\r\n<div class=\"text-center\">\r\n\t \r\n</div>",
				"latitude": 40.1163444519043,
				"longitude": -88.18903350830078,
				"title": "Flex-N-Gate Corporation"
			}, {
				"body": "\r\n\r\n\r\n\r\n<h3 >Flex-N-Gate Canada Co.</h3>\r\n<p>538 Blanchard Park, Tecumseh, Ontario, Canada N8N 2L9</p>\r\n<p><a href=\"http://www.flexngate.com\" target=\"_blank\"><span class=\"glyphicon glyphicon-new-window\"></span>http://www.flexngate.com</a></p>\r\n<div class=\"text-center\">\r\n\t \r\n</div>",
				"latitude": 42.3043098449707,
				"longitude": -82.8193130493164,
				"title": "Flex-N-Gate Canada Co."
			}, {
				"body": "\r\n\r\n\r\n\r\n<h3 >Ventra Plastics - Windsor</h3>\r\n<p>2800 Kew Drive, Windsor, Ontario, Canada N8T 3C6</p>\r\n<p><a href=\"http://www.flex-n-gate.com\" target=\"_blank\"><span class=\"glyphicon glyphicon-new-window\"></span>http://www.flex-n-gate.com</a></p>\r\n<div class=\"text-center\">\r\n\t \r\n</div>",
				"latitude": 42.304962158203125,
				"longitude": -82.9382095336914,
				"title": "Ventra Plastics - Windsor"
			}, {
				"body": "\r\n\r\n\r\n\r\n<h3 >Ventra Plastics - Peterborough</h3>\r\n<p>775 Technology Drive, Petersborough, Ontario, Canada K9J 6Z8</p>\r\n<p><a href=\"http://www.flex-n-gate.com\" target=\"_blank\"><span class=\"glyphicon glyphicon-new-window\"></span>http://www.flex-n-gate.com</a></p>\r\n<div class=\"text-center\">\r\n\t \r\n</div>",
				"latitude": 44.30213928222656,
				"longitude": -78.31990051269531,
				"title": "Ventra Plastics - Peterborough"
			}, {
				"body": "\r\n\r\n\r\n\r\n<h3 >Ventra Plastics - Kitchener</h3>\r\n<p>675 Trillium Drive, Kitchener, Ontario, Canada N2R 1G8</p>\r\n<p><a href=\"http://www.flex-n-gate.com\" target=\"_blank\"><span class=\"glyphicon glyphicon-new-window\"></span>http://www.flex-n-gate.com</a></p>\r\n<div class=\"text-center\">\r\n\t \r\n</div>",
				"latitude": 43.399009704589844,
				"longitude": -80.47631072998047,
				"title": "Ventra Plastics - Kitchener"
			}, {
				"body": "\r\n\r\n\r\n\r\n<h3 >Masterguard LLC</h3>\r\n<p>1200 East 8th Street, Veedersburg, Indiana 47987 USA</p>\r\n<p><a href=\"http://www.flex-n-gate.com\" target=\"_blank\"><span class=\"glyphicon glyphicon-new-window\"></span>http://www.flex-n-gate.com</a></p>\r\n<div class=\"text-center\">\r\n\t \r\n</div>",
				"latitude": 40.118221282958984,
				"longitude": -87.24472045898438,
				"title": "Masterguard LLC"
			}, {
				"body": "\r\n\r\n\r\n\r\n<h3 >Ventra Plastics - Russellville</h3>\r\n<p>140 Progress Drive, Russelville, Kentucky 42276 USA</p>\r\n<p><a href=\"http://www.flex-n-gate.com\" target=\"_blank\"><span class=\"glyphicon glyphicon-new-window\"></span>http://www.flex-n-gate.com</a></p>\r\n<div class=\"text-center\">\r\n\t \r\n</div>",
				"latitude": 36.85091018676758,
				"longitude": -86.90253448486328,
				"title": "Ventra Plastics - Russellville"
			}, {
				"body": "\r\n\r\n\r\n\r\n<h3 >Flex-N-Gate Oklahoma, LLC</h3>\r\n<p>One General Street, Ada, Oklahoma 74820 USA</p>\r\n<p><a href=\"http://www.flex-n-gate.com\" target=\"_blank\"><span class=\"glyphicon glyphicon-new-window\"></span>http://www.flex-n-gate.com</a></p>\r\n<div class=\"text-center\">\r\n\t \r\n</div>",
				"latitude": 34.789337158203125,
				"longitude": -96.64552307128906,
				"title": "Flex-N-Gate Oklahoma, LLC"
			}, {
				"body": "\r\n\r\n\r\n\r\n<h3 >Flex-N-Gate Mexico, S. de C.V.</h3>\r\n<p>Avenue Principal No 1, Parque Industrial Opcion, San Jose Iturbide, Guanajuato, Mexico 37980</p>\r\n<p><a href=\"http://www.flex-n-gate.com\" target=\"_blank\"><span class=\"glyphicon glyphicon-new-window\"></span>http://www.flex-n-gate.com</a></p>\r\n<div class=\"text-center\">\r\n\t \r\n</div>",
				"latitude": 20.998668670654297,
				"longitude": -100.38628387451172,
				"title": "Flex-N-Gate Mexico, S. de C.V."
			}, {
				"body": "\r\n\r\n\r\n\r\n<h3 >Flex N Gate Queretaro, S.A. de C.V.</h3>\r\n<p>Av. Manantiales No. 3, Parque Industrial Bernardo Quintana, C.P. 76249 El Marques. Queretaro., Mexico</p>\r\n<p><a href=\"http://www.flex-n-gate.com\" target=\"_blank\"><span class=\"glyphicon glyphicon-new-window\"></span>http://www.flex-n-gate.com</a></p>\r\n<div class=\"text-center\">\r\n\t \r\n</div>",
				"latitude": 20.58359718322754,
				"longitude": -100.3729476928711,
				"title": "Flex N Gate Queretaro, S.A. de C.V."
			}, {
				"body": "\r\n\r\n\r\n\r\n<h3 >Flex N Gate Puebla, S.A. de C.V.</h3>\r\n<p>Calle Resurrecion Sur No. 6, Fracc. Industrial 'La Resurrecion', Puebla, Pue., Mexico</p>\r\n<p><a href=\"http://www.flex-n-gate.com\" target=\"_blank\"><span class=\"glyphicon glyphicon-new-window\"></span>http://www.flex-n-gate.com</a></p>\r\n<div class=\"text-center\">\r\n\t \r\n</div>",
				"latitude": 19.079036712646484,
				"longitude": -98.15210723876953,
				"title": "Flex N Gate Puebla, S.A. de C.V."
			}, {
				"body": "\r\n\r\n\r\n\r\n<h3 >Flex-N-Gate Battle Creek, LLC</h3>\r\n<p>10250 F. Drive North Battle Creek, Michigan 49014, USA</p>\r\n<p><a href=\"http://www.flex-n-gate.com/\" target=\"_blank\"><span class=\"glyphicon glyphicon-new-window\"></span>http://www.flex-n-gate.com/</a></p>\r\n<div class=\"text-center\">\r\n\t \r\n</div>",
				"latitude": 42.290470123291016,
				"longitude": -85.10493469238281,
				"title": "Flex-N-Gate Battle Creek, LLC"
			}, {
				"body": "\r\n\r\n\r\n\r\n<h3 >Flex-N-Gate Forming Technologies, LLC</h3>\r\n<p>26269 Groesbeck Warren, Michigan 48089, USA</p>\r\n<p><a href=\"http://www.flex-n-gate.com/\" target=\"_blank\"><span class=\"glyphicon glyphicon-new-window\"></span>http://www.flex-n-gate.com/</a></p>\r\n<div class=\"text-center\">\r\n\t \r\n</div>",
				"latitude": 42.49047088623047,
				"longitude": -82.97344207763672,
				"title": "Flex-N-Gate Forming Technologies, LLC"
			}, {
				"body": "\r\n\r\n\r\n\r\n<h3 >Flex-N-Gate Michigan, LLC</h3>\r\n<p>5663 East Nine Mile Road Warren, Michigan, 48091, USA</p>\r\n<p><a href=\"http://www.flex-n-gate.com\" target=\"_blank\"><span class=\"glyphicon glyphicon-new-window\"></span>http://www.flex-n-gate.com</a></p>\r\n<div class=\"text-center\">\r\n\t \r\n</div>",
				"latitude": 42.46326446533203,
				"longitude": -83.04644775390625,
				"title": "Flex-N-Gate Michigan, LLC"
			}, {
				"body": "\r\n\r\n\r\n\r\n<h3 >ChromeShield Co.</h3>\r\n<p>804 McDougall Windsor,Ontario Canada N9A 1M1</p>\r\n<p><a href=\"http://www.flex-n-gate.com/\" target=\"_blank\"><span class=\"glyphicon glyphicon-new-window\"></span>http://www.flex-n-gate.com/</a></p>\r\n<div class=\"text-center\">\r\n\t \r\n</div>",
				"latitude": 42.313236236572266,
				"longitude": -83.0308609008789,
				"title": "ChromeShield Co."
			}, {
				"body": "\r\n\r\n\r\n\r\n<h3 >Flex-N-Gate Bradford</h3>\r\n<p>75 Reagens Industrial Court R.R. #1 Bradford, Ontario Canada L3Z 2A4</p>\r\n<p><a href=\"http://www.flex-n-gate.com/\" target=\"_blank\"><span class=\"glyphicon glyphicon-new-window\"></span>http://www.flex-n-gate.com/</a></p>\r\n<div class=\"text-center\">\r\n\t \r\n</div>",
				"latitude": 44.11497116088867,
				"longitude": -79.59701538085938,
				"title": "Flex-N-Gate Bradford"
			}, {
				"body": "\r\n\r\n\r\n\r\n<h3 >Flex-N-Gate Seeburn, Beaverton</h3>\r\n<p>530 Park Street Beaverton, Ontario Canada L0K 1A0, Canada</p>\r\n<p><a href=\"http://www.flex-n-gate.com/\" target=\"_blank\"><span class=\"glyphicon glyphicon-new-window\"></span>http://www.flex-n-gate.com/</a></p>\r\n<div class=\"text-center\">\r\n\t \r\n</div>",
				"latitude": 44.425575256347656,
				"longitude": -79.15147399902344,
				"title": "Flex-N-Gate Seeburn, Beaverton"
			}, {
				"body": "\r\n\r\n\r\n\r\n<h3 >Flex-N-Gate Seeburn, Tottenham</h3>\r\n<p>65 Industrial Road Tottenham, Ontario Canada L0G 1W0</p>\r\n<p><a href=\"http://www.flex-n-gate.com\" target=\"_blank\"><span class=\"glyphicon glyphicon-new-window\"></span>http://www.flex-n-gate.com</a></p>\r\n<div class=\"text-center\">\r\n\t \r\n</div>",
				"latitude": 44.02604293823242,
				"longitude": -79.8113784790039,
				"title": "Flex-N-Gate Seeburn, Tottenham"
			}, {
				"body": "\r\n\r\n\r\n\r\n<h3 >Flex-N-Gate Plastics, Danville</h3>\r\n<p> 3403 Lynch Creek Drive, Danville, IL 61834 USA</p>\r\n<p><a href=\"http://www.flex-n-gate.com\" target=\"_blank\"><span class=\"glyphicon glyphicon-new-window\"></span>http://www.flex-n-gate.com</a></p>\r\n<div class=\"text-center\">\r\n\t \r\n</div>",
				"latitude": 40.13679885864258,
				"longitude": -87.55243682861328,
				"title": "Flex-N-Gate Plastics, Danville"
			}, {
				"body": "\r\n\r\n\r\n\r\n<h3 >Flex-N-Gate Alabama, LLC</h3>\r\n<p>6324 Bay Drive, McCalla, AL 35111, USA</p>\r\n<p><a href=\"http://www.flex-n-gate.com\" target=\"_blank\"><span class=\"glyphicon glyphicon-new-window\"></span>http://www.flex-n-gate.com</a></p>\r\n<div class=\"text-center\">\r\n\t \r\n</div>",
				"latitude": 33.31660079956055,
				"longitude": -87.05008697509766,
				"title": "Flex-N-Gate Alabama, LLC"
			}, {
				"body": "\r\n\r\n\r\n\r\n<h3 >Flex-N-Gate Covington</h3>\r\n<p>11778 South 600 West, Covington, IN 47932, USA</p>\r\n<p><a href=\"http://www.flex-n-gate.com\" target=\"_blank\"><span class=\"glyphicon glyphicon-new-window\"></span>http://www.flex-n-gate.com</a></p>\r\n<div class=\"text-center\">\r\n\t \r\n</div>",
				"latitude": 40.14779281616211,
				"longitude": -87.43566131591797,
				"title": "Flex-N-Gate Covington"
			}, {
				"body": "\r\n\r\n\r\n\r\n<h3 >Ventra Angola, LLC</h3>\r\n<p>3000 Woodhull Drive, Angola, IN 46703-9318 USA</p>\r\n<p><a href=\"http://www.flex-n-gate.com\" target=\"_blank\"><span class=\"glyphicon glyphicon-new-window\"></span>http://www.flex-n-gate.com</a></p>\r\n<div class=\"text-center\">\r\n\t \r\n</div>",
				"latitude": 41.67150115966797,
				"longitude": -85.0024642944336,
				"title": "Ventra Angola, LLC"
			}, {
				"body": "\r\n\r\n\r\n\r\n<h3 >Ventra Evart, LLC</h3>\r\n<p>601 West 7th Street, Evart, Michigan 49631 USA</p>\r\n<p><a href=\"http://www.flex-n-gate.com\" target=\"_blank\"><span class=\"glyphicon glyphicon-new-window\"></span>http://www.flex-n-gate.com</a></p>\r\n<div class=\"text-center\">\r\n\t \r\n</div>",
				"latitude": 43.900596618652344,
				"longitude": -85.26546478271484,
				"title": "Ventra Evart, LLC"
			}, {
				"body": "\r\n\r\n\r\n\r\n<h3 >Ventra Folwerville, LLC</h3>\r\n<p>8887 W. Grand River, Fowlerville, MI 48836 USA</p>\r\n<p><a href=\"http://www.flex-n-gate.com\" target=\"_blank\"><span class=\"glyphicon glyphicon-new-window\"></span>http://www.flex-n-gate.com</a></p>\r\n<div class=\"text-center\">\r\n\t \r\n</div>",
				"latitude": 42.660091400146484,
				"longitude": -84.09022521972656,
				"title": "Ventra Folwerville, LLC"
			}, {
				"body": "\r\n\r\n\r\n\r\n<h3 >Ventra Grand Rapids 5, LLC</h3>\r\n<p>3075 Breton Road, Grand Rapids, MI 49512, USA</p>\r\n<p><a href=\"http://www.flex-n-gate.com\" target=\"_blank\"><span class=\"glyphicon glyphicon-new-window\"></span>http://www.flex-n-gate.com</a></p>\r\n<div class=\"text-center\">\r\n\t \r\n</div>",
				"latitude": 42.90765380859375,
				"longitude": -85.608154296875,
				"title": "Ventra Grand Rapids 5, LLC"
			}, {
				"body": "\r\n\r\n\r\n\r\n<h3 >Ventra Grand Rapids 29, LLC</h3>\r\n<p>2890 29th Street SE, Grand Rapids, MI 49512 USA</p>\r\n<p><a href=\"http://www.flex-n-gate.com\" target=\"_blank\"><span class=\"glyphicon glyphicon-new-window\"></span>http://www.flex-n-gate.com</a></p>\r\n<div class=\"text-center\">\r\n\t \r\n</div>",
				"latitude": 42.90883255004883,
				"longitude": -85.59512329101562,
				"title": "Ventra Grand Rapids 29, LLC"
			}, {
				"body": "\r\n\r\n\r\n\r\n<h3 >Ventra Ionia Main, LLC</h3>\r\n<p>14N. Beardsley Road, Ionia, MI 48846 USA</p>\r\n<p><a href=\"http://www.flex-n-gate.com\" target=\"_blank\"><span class=\"glyphicon glyphicon-new-window\"></span>http://www.flex-n-gate.com</a></p>\r\n<div class=\"text-center\">\r\n\t \r\n</div>",
				"latitude": 42.98606491088867,
				"longitude": -85.0297622680664,
				"title": "Ventra Ionia Main, LLC"
			}, {
				"body": "\r\n\r\n\r\n\r\n<h3 >Ventra SPD Corp.</h3>\r\n<p>60-64 North Fearing Blvd., Toledo, OH 43607 USA</p>\r\n<p><a href=\"http://www.flex-n-gate.com\" target=\"_blank\"><span class=\"glyphicon glyphicon-new-window\"></span>http://www.flex-n-gate.com</a></p>\r\n<div class=\"text-center\">\r\n\t \r\n</div>",
				"latitude": 41.64025115966797,
				"longitude": -83.59004974365234,
				"title": "Ventra SPD Corp."
			}, {
				"body": "\r\n\r\n\r\n\r\n<h3 >Ventra Salem, LLC</h3>\r\n<p>800 Pennsylania Avenue, Salem, OH 44460, USA</p>\r\n<p><a href=\"http://www.flex-n-gate.com\" target=\"_blank\"><span class=\"glyphicon glyphicon-new-window\"></span>http://www.flex-n-gate.com</a></p>\r\n<div class=\"text-center\">\r\n\t \r\n</div>",
				"latitude": 40.90629959106445,
				"longitude": -80.86793518066406,
				"title": "Ventra Salem, LLC"
			}, {
				"body": "\r\n\r\n\r\n\r\n<h3 >Flex-N-Gate Texas, LLC</h3>\r\n<p>2400 Centennial, Arlington, TX 76011, USA</p>\r\n<p><a href=\"http://www.flex-n-gate.com\" target=\"_blank\"><span class=\"glyphicon glyphicon-new-window\"></span>http://www.flex-n-gate.com</a></p>\r\n<div class=\"text-center\">\r\n\t \r\n</div>",
				"latitude": 32.74473190307617,
				"longitude": -97.06660461425781,
				"title": "Flex-N-Gate Texas, LLC"
			}, {
				"body": "\r\n\r\n\r\n\r\n<h3 >Ventra Plastics Mississauga SPD</h3>\r\n<p>2333 North Sheridan Way, Mississauga, Ontario, Canada L5K 1A7</p>\r\n<p><a href=\"http://www.flex-n-gate.com\" target=\"_blank\"><span class=\"glyphicon glyphicon-new-window\"></span>http://www.flex-n-gate.com</a></p>\r\n<div class=\"text-center\">\r\n\t \r\n</div>",
				"latitude": 43.51886749267578,
				"longitude": -79.65428924560547,
				"title": "Ventra Plastics Mississauga SPD"
			}, {
				"body": "\r\n\r\n\r\n\r\n<h3 >Veltri Canada Ltd. Howard Division</h3>\r\n<p>1425 Howard Avenue, Windsor, Ontario. Canada N8X 5C9</p>\r\n<p><a href=\"http://www.flex-n-gate.com\" target=\"_blank\"><span class=\"glyphicon glyphicon-new-window\"></span>http://www.flex-n-gate.com</a></p>\r\n<div class=\"text-center\">\r\n\t \r\n</div>",
				"latitude": 42.303951263427734,
				"longitude": -83.02115631103516,
				"title": "Veltri Canada Ltd. Howard Division"
			}, {
				"body": "\r\n\r\n\r\n\r\n<h3 >Veltri Canada Ltd. Lakeshore Division</h3>\r\n<p>409 Patillo Road, Tecumseh, Ontario, Canada N8N 2L9</p>\r\n<p><a href=\"http://www.flex-n-gate.com\" target=\"_blank\"><span class=\"glyphicon glyphicon-new-window\"></span>http://www.flex-n-gate.com</a></p>\r\n<div class=\"text-center\">\r\n\t \r\n</div>",
				"latitude": 42.286983489990234,
				"longitude": -82.82008361816406,
				"title": "Veltri Canada Ltd. Lakeshore Division"
			}, {
				"body": "\r\n\r\n\r\n\r\n<h3 >Ventra Ridgetown</h3>\r\n<p>74 Marsh Street, Ridgetown, Ontario, Canada N0P 2C0</p>\r\n<p><a href=\"http://www.flex-n-gate.com\" target=\"_blank\"><span class=\"glyphicon glyphicon-new-window\"></span>http://www.flex-n-gate.com</a></p>\r\n<div class=\"text-center\">\r\n\t \r\n</div>",
				"latitude": 42.428611755371094,
				"longitude": -81.87789154052734,
				"title": "Ventra Ridgetown"
			}, {
				"body": "\r\n\r\n\r\n\r\n<h3 >Flex-n-gate Hermosillo S. De R.l. De</h3>\r\n<p>Mercury No. 12 Parque Industrial, Dynatech Sur, Hermosillo, Sonora, Mexico 83299 </p>\r\n<p><a href=\"http://www.flex-n-gate.com\" target=\"_blank\"><span class=\"glyphicon glyphicon-new-window\"></span>http://www.flex-n-gate.com</a></p>\r\n<div class=\"text-center\">\r\n\t \r\n</div>",
				"latitude": 29.003326416015625,
				"longitude": -110.91266632080078,
				"title": "Flex-n-gate Hermosillo S. De R.l. De"
			}
		],
		"2016 rank": "40",
		"2017 Rank": "33",
		"2017 Sales": "7,551",
		"2016 Sales": "6,434",
		"Import ID": "A030",
		"Products": ["Interior ", " exterior plastics", " metal bumpers ", " hitches", " structuralmetal assemblies", " forward ", " signal lighting", " mechanical"],
		"Marker Colour": "yellow"
	},
	"A031": {
		"Company": "Freudenberg Group",
		"Corporate_Location_Lat": 42.386543,
		"Corporate_Location_Lon": -83.517685,
		"Locations": [{
				"body": "\r\n\r\n\r\n\r\n<h3 >Freudenberg-NOK Inc.</h3>\r\n<p>65 Spruce Street, N4G 5C4 Tillsonburg, Ontario, Canada</p>\r\n<p><a href=\"http://www.freudenberg.com\" target=\"_blank\"><span class=\"glyphicon glyphicon-new-window\"></span>http://www.freudenberg.com</a></p>\r\n<div class=\"text-center\">\r\n\t \r\n</div>",
				"latitude": 42.850589752197266,
				"longitude": -80.71461486816406,
				"title": "Freudenberg-NOK Inc."
			}, {
				"body": "\r\n\r\n\r\n\r\n<h3 >Freudenberg Filtration Technologies Inc.</h3>\r\n<p>649 Wilton Grove Road, ON N6N 1N7 London, Canada</p>\r\n<p><a href=\"http://www.freudenberg-filter.com\" target=\"_blank\"><span class=\"glyphicon glyphicon-new-window\"></span>http://www.freudenberg-filter.com</a></p>\r\n<div class=\"text-center\">\r\n\t \r\n</div>",
				"latitude": 42.92158889770508,
				"longitude": -81.20755767822266,
				"title": "Freudenberg Filtration Technologies Inc."
			}, {
				"body": "\r\n\r\n\r\n\r\n<h3 >Freudenberg-NOK Sealing Technologies</h3>\r\n<p>47690 East Anchor Court Plymouth, MI, 48170, USA</p>\r\n<p><a href=\"http://www.fst.com\" target=\"_blank\"><span class=\"glyphicon glyphicon-new-window\"></span>http://www.fst.com</a></p>\r\n<div class=\"text-center\">\r\n\t \r\n</div>",
				"latitude": 42.386287689208984,
				"longitude": -83.51763153076172,
				"title": "Freudenberg-NOK Sealing Technologies"
			}, {
				"body": "\r\n\r\n\r\n\r\n<h3 >Freudenberg Nok de Mexico, S.A. de C.V.</h3>\r\n<p>km 1, Carretera Cuautla, Las Estacas, 62740 Cuautla/Morelos,  Mexico</p>\r\n<p><a href=\"http://www.freudenberg-nok.com\" target=\"_blank\"><span class=\"glyphicon glyphicon-new-window\"></span>http://www.freudenberg-nok.com</a></p>\r\n<div class=\"text-center\">\r\n\t \r\n</div>",
				"latitude": 18.832368850708008,
				"longitude": -98.94679260253906,
				"title": "Freudenberg Nok de Mexico, S.A. de C.V."
			}, {
				"body": "\r\n\r\n\r\n\r\n<h3 >Freudenberg Performance Materials LP</h3>\r\n<p>3500 Industrial Drive Durham, NC 27704, USA</p>\r\n<p><a href=\"https://www.freudenberg-pm.com\" target=\"_blank\"><span class=\"glyphicon glyphicon-new-window\"></span>https://www.freudenberg-pm.com</a></p>\r\n<div class=\"text-center\">\r\n\t \r\n</div>",
				"latitude": 36.063663482666016,
				"longitude": -78.85687255859375,
				"title": "Freudenberg Performance Materials LP"
			}, {
				"body": "\r\n\r\n\r\n\r\n<h3 >Vibracoustic - South Haven<br>(Formerly TrelleborgVibracoustic - South Haven)</h3>\r\n<p>400 Aylworth Ave., South Haven, MI 49090, USA</p>\r\n<p><a href=\"http://www.vibracoustic.com\" target=\"_blank\"><span class=\"glyphicon glyphicon-new-window\"></span>http://www.vibracoustic.com</a></p>\r\n<div class=\"text-center\">\r\n\t \r\n</div>",
				"latitude": 42.3887825012207,
				"longitude": -86.27452850341797,
				"title": "Vibracoustic - South Haven<br>(Formerly TrelleborgVibracoustic - South Haven)"
			}, {
				"body": "\r\n\r\n\r\n\r\n<h3 >VIAM Manufacturing, Inc. - Tennessee</h3>\r\n<p>87 Park Tower Drive, Manchester, TN 37355 USA</p>\r\n<p><a href=\"http://www.viammfg.com\" target=\"_blank\"><span class=\"glyphicon glyphicon-new-window\"></span>http://www.viammfg.com</a></p>\r\n<div class=\"text-center\">\r\n\t \r\n</div>",
				"latitude": 35.43997573852539,
				"longitude": -86.0205078125,
				"title": "VIAM Manufacturing, Inc. - Tennessee"
			}, {
				"body": "\r\n\r\n\r\n\r\n<h3 >Vitech Manufacturing L.P. (KY)</h3>\r\n<p>2975 Pembroke Road, Hopkinsville, KY 42240-6802 U.S.A.</p>\r\n<p><a href=\"http://www.vilene.co.jp\" target=\"_blank\"><span class=\"glyphicon glyphicon-new-window\"></span>http://www.vilene.co.jp</a></p>\r\n<div class=\"text-center\">\r\n\t \r\n</div>",
				"latitude": 36.83055114746094,
				"longitude": -87.43749237060547,
				"title": "Vitech Manufacturing L.P. (KY)"
			}, {
				"body": "\r\n\r\n\r\n\r\n<h3 >Vibracoustic de Mexico S.A. de C.V.</h3>\r\n<p>Blvd. Aeropuerto Miguel Aleman 164 Int 5 y 6 Lerma, Edo de Mexico 52000</p>\r\n<p><a href=\"http://www.vibracoustic.com\" target=\"_blank\"><span class=\"glyphicon glyphicon-new-window\"></span>http://www.vibracoustic.com</a></p>\r\n<div class=\"text-center\">\r\n\t \r\n</div>",
				"latitude": 19.31075668334961,
				"longitude": -99.56169128417969,
				"title": "Vibracoustic de Mexico S.A. de C.V."
			}, {
				"body": "\r\n\r\n\r\n\r\n<h3 >VIAM Mexico S.A. de C.V.</h3>\r\n<p>Carretera San Isidro La Soledad Km 16.3 Palo Alto, El Llano, Aguascalientes 20330, Mexico</p>\r\n<p><a href=\"http://www.vilene.co.jp\" target=\"_blank\"><span class=\"glyphicon glyphicon-new-window\"></span>http://www.vilene.co.jp</a></p>\r\n<div class=\"text-center\">\r\n\t \r\n</div>",
				"latitude": 21.91665267944336,
				"longitude": -101.96327209472656,
				"title": "VIAM Mexico S.A. de C.V."
			}
		],
		"2016 rank": "?",
		"2017 Rank": "50",
		"2017 Sales": "4,782",
		"2016 Sales": "3,411",
		"Import ID": "A031",
		"Products": ["Seals", " precision molded components", " vibration control", " filtration", "automotive interior", " lubricants ", " release agents"],
		"Marker Colour": "blue"
	},
	"A036": {
		"Company": "Grupo Antolin",
		"Corporate_Location_Lat": 42.696898,
		"Corporate_Location_Lon": -83.263469,
		"Locations": [{
				"body": "\r\n\r\n\r\n\r\n<h3 >Grupo Antolin Silao, S.A. de C.V.</h3>\r\n<p>Avda. Ingenieros no. 51, Parque Industrial FIPASI, Apdo. 238 Silao, Mexico</p>\r\n<p><a href=\"http://www.grupoantolin.com\" target=\"_blank\"><span class=\"glyphicon glyphicon-new-window\"></span>http://www.grupoantolin.com</a></p>\r\n<div class=\"text-center\">\r\n\t \r\n</div>",
				"latitude": 19.512269973754883,
				"longitude": -99.07875061035156,
				"title": "Grupo Antolin Silao, S.A. de C.V."
			}, {
				"body": "\r\n\r\n\r\n\r\n<h3 >Grupo Antolin North America Inc.</h3>\r\n<p>1700 Atlantic Blvd., Auburn Hills, MI 48326, USA</p>\r\n<p><a href=\"http://www.grupoantolin.com\" target=\"_blank\"><span class=\"glyphicon glyphicon-new-window\"></span>http://www.grupoantolin.com</a></p>\r\n<div class=\"text-center\">\r\n\t \r\n</div>",
				"latitude": 42.6969108581543,
				"longitude": -83.26368713378906,
				"title": "Grupo Antolin North America Inc."
			}, {
				"body": "\r\n\r\n\r\n\r\n<h3 >Magna Exteriors and Interiors Corp. - Arteaga Plant</h3>\r\n<p>Arteaga, Coahuila, Mexico</p>\r\n<p><a href=\"http://www.grupoantolin.com\" target=\"_blank\"><span class=\"glyphicon glyphicon-new-window\"></span>http://www.grupoantolin.com</a></p>\r\n<div class=\"text-center\">\r\n\t \r\n</div>",
				"latitude": 25.45467185974121,
				"longitude": -100.85079193115234,
				"title": "Magna Exteriors and Interiors Corp. - Arteaga Plant"
			}, {
				"body": "\r\n\r\n\r\n\r\n<h3 >Grupo Antolin Tlaxcala S. De R.L. De C.V.</h3>\r\n<p>Vesta Park Tlaxcala I, Virgen de la Caridad No 19, Parque Industrial Xicontecatl II, 90500 Tlaxcala, Huamantla, Mexico</p>\r\n<p><a href=\"http://www.grupoantolin.com\" target=\"_blank\"><span class=\"glyphicon glyphicon-new-window\"></span>http://www.grupoantolin.com</a></p>\r\n<div class=\"text-center\">\r\n\t \r\n</div>",
				"latitude": 19.31849479675293,
				"longitude": -97.92338562011719,
				"title": "Grupo Antolin Tlaxcala S. De R.L. De C.V."
			}, {
				"body": "\r\n\r\n\r\n\r\n<h3 >GRUPO ANTOLIN-KENTUCKY, Inc. - Louisville Plant</h3>\r\n<p>Westport - 12740H Westport Road, Louisville, KY 40245, USA</p>\r\n<p><a href=\"http://www.grupoantolin.com\" target=\"_blank\"><span class=\"glyphicon glyphicon-new-window\"></span>http://www.grupoantolin.com</a></p>\r\n<div class=\"text-center\">\r\n\t \r\n</div>",
				"latitude": 38.479312896728516,
				"longitude": -85.46160125732422,
				"title": "GRUPO ANTOLIN-KENTUCKY, Inc. - Louisville Plant"
			}, {
				"body": "\r\n\r\n\r\n\r\n<h3 >GRUPO ANTOLIN-KENTUCKY, Inc. </h3>\r\n<p>208 Commerce Court, Hopkinsville, KY - 42240, USA</p>\r\n<p><a href=\"http://www.grupoantolin.com\" target=\"_blank\"><span class=\"glyphicon glyphicon-new-window\"></span>http://www.grupoantolin.com</a></p>\r\n<div class=\"text-center\">\r\n\t \r\n</div>",
				"latitude": 36.83213424682617,
				"longitude": -87.4446792602539,
				"title": "GRUPO ANTOLIN-KENTUCKY, Inc. "
			}, {
				"body": "\r\n\r\n\r\n\r\n<h3 >Antolin Shelby Inc.</h3>\r\n<p>52888 Shelby Pkwy, Shelby Charter Township, MI 48315, USA</p>\r\n<p><a href=\"http://www.grupoantolin.com\" target=\"_blank\"><span class=\"glyphicon glyphicon-new-window\"></span>http://www.grupoantolin.com</a></p>\r\n<div class=\"text-center\">\r\n\t \r\n</div>",
				"latitude": 42.68091583251953,
				"longitude": -83.0114517211914,
				"title": "Antolin Shelby Inc."
			}, {
				"body": "\r\n\r\n\r\n\r\n<h3 >Antolin Alabama, Inc.</h3>\r\n<p>6801 Jefferson Metropolitan Pkwy, McCalla, AL 35111, Alabama, USA</p>\r\n<p><a href=\"http://www.grupoantolin.com/\" target=\"_blank\"><span class=\"glyphicon glyphicon-new-window\"></span>http://www.grupoantolin.com/</a></p>\r\n<div class=\"text-center\">\r\n\t \r\n</div>",
				"latitude": 33.31147766113281,
				"longitude": -87.03904724121094,
				"title": "Antolin Alabama, Inc."
			}
		],
		"2016 rank": "45",
		"2017 Rank": "42",
		"2017 Sales": "5,692",
		"2016 Sales": "5,629",
		"Import ID": "A036",
		"Products": ["Overhead systems", " door module ", " panels", " window regulators", "interior ", " exterior lighting ", " cockpits"],
		"Marker Colour": "red"
	},
	"A037": {
		"Company": "Hanon Systems",
		"Corporate_Location_Lat": 42.505432,
		"Corporate_Location_Lon": -83.439121,
		"Locations": [{
				"body": "\r\n\r\n\r\n\r\n<h3 >Hanon Systems Canada Inc.<br>(Formerly Halla Visteon Climate Control Canada Inc. )</h3>\r\n<p>360 University Ave. Belleville, ON K8N 5T6 CANADA</p>\r\n<p><a href=\"http://www.hanonsystems.com\" target=\"_blank\"><span class=\"glyphicon glyphicon-new-window\"></span>http://www.hanonsystems.com</a></p>\r\n<div class=\"text-center\">\r\n\t \r\n</div>",
				"latitude": 44.201290130615234,
				"longitude": -77.36529541015625,
				"title": "Hanon Systems Canada Inc.<br>(Formerly Halla Visteon Climate Control Canada Inc. )"
			}, {
				"body": "\r\n\r\n\r\n\r\n<h3 >Hanon Systems Alabama Corp.<br>(Formerly Halla Visteon Climate Systems Alabama Corporation</h3>\r\n<p>676 Halla-Bama Drive Shorter, AL 36075, USA</p>\r\n<p><a href=\"http://www.hanonsystems.com\" target=\"_blank\"><span class=\"glyphicon glyphicon-new-window\"></span>http://www.hanonsystems.com</a></p>\r\n<div class=\"text-center\">\r\n\t \r\n</div>",
				"latitude": 32.3951301574707,
				"longitude": -85.9183578491211,
				"title": "Hanon Systems Alabama Corp.<br>(Formerly Halla Visteon Climate Systems Alabama Corporation"
			}, {
				"body": "\r\n\r\n\r\n\r\n<h3 >Coclisa S.A. de C.V. - Paso del Norte Plant</h3>\r\n<p>Ave. del Charro No. 1751 Cd. Juarez, Chihuahua, Mexico C.P. 32310 </p>\r\n<p><a href=\"http://www.hanonsystems.com\" target=\"_blank\"><span class=\"glyphicon glyphicon-new-window\"></span>http://www.hanonsystems.com</a></p>\r\n<div class=\"text-center\">\r\n\t \r\n</div>",
				"latitude": 31.75295639038086,
				"longitude": -106.43412780761719,
				"title": "Coclisa S.A. de C.V. - Paso del Norte Plant"
			}, {
				"body": "\r\n\r\n\r\n\r\n<h3 >Climate Systems Mexicana, S.A. de C.V.</h3>\r\n<p>Avenida Avante No. 701 Parque Industrial Guadalupe Guadalupe, Nuevo Leon, Mexico 64170</p>\r\n<p><a href=\"http://www.hanonsystems.com\" target=\"_blank\"><span class=\"glyphicon glyphicon-new-window\"></span>http://www.hanonsystems.com</a></p>\r\n<div class=\"text-center\">\r\n\t \r\n</div>",
				"latitude": 25.77530860900879,
				"longitude": -100.42242431640625,
				"title": "Climate Systems Mexicana, S.A. de C.V."
			}, {
				"body": "\r\n\r\n\r\n\r\n<h3 >J Clima Sistemas Mexico, SA. de C.V.</h3>\r\n<p>Calle 4 Poniente #10560, Parque Industrial El Salto, Jalisco, Mexico</p>\r\n<p><a href=\"http://www.hanonsystems.com\" target=\"_blank\"><span class=\"glyphicon glyphicon-new-window\"></span>http://www.hanonsystems.com</a></p>\r\n<div class=\"text-center\">\r\n\t \r\n</div>",
				"latitude": 20.5178279876709,
				"longitude": -103.18268585205078,
				"title": "J Clima Sistemas Mexico, SA. de C.V."
			}, {
				"body": "\r\n\r\n\r\n\r\n<h3 >Coclisa S.A. de C.V. - San Lorenzo </h3>\r\n<p>Ave. Laguna de Tamiahua No. 7325, Cd. Juarez, Chihuahua, Mexico C.P. 32340</p>\r\n<p><a href=\"http://www.hanonsystems.com\" target=\"_blank\"><span class=\"glyphicon glyphicon-new-window\"></span>http://www.hanonsystems.com</a></p>\r\n<div class=\"text-center\">\r\n\t \r\n</div>",
				"latitude": 31.73602294921875,
				"longitude": -106.41709899902344,
				"title": "Coclisa S.A. de C.V. - San Lorenzo "
			}, {
				"body": "\r\n\r\n\r\n\r\n<h3 >Hanon Systems USA, LLC</h3>\r\n<p>One Village Center Drive, Van Buren Township, MI 48111, USA</p>\r\n<p><a href=\"http://www.hanonsystems.com\" target=\"_blank\"><span class=\"glyphicon glyphicon-new-window\"></span>http://www.hanonsystems.com</a></p>\r\n<div class=\"text-center\">\r\n\t \r\n</div>",
				"latitude": 42.24199295043945,
				"longitude": -83.43278503417969,
				"title": "Hanon Systems USA, LLC"
			}
		],
		"2016 rank": "50",
		"2017 Rank": "48",
		"2017 Sales": "4,939",
		"2016 Sales": "4,915",
		"Import ID": "A037",
		"Products": ["Thermal ", " energy management", " heating ventilation ", " air conditioning", "powertrain cooling", " compressors", " fluid transport", " thermal"],
		"Marker Colour": "red"
	},
	"A034": {
		"Company": "Gestamp",
		"Corporate_Location_Lat": 42.558856 ,
		"Corporate_Location_Lon": -83.16378 ,
		"Locations": [{
				"body": "\r\n\r\n\r\n\r\n<h3 >Edscha Automotive Michigan</h3>\r\n<p>2800 Superior CT, Suite 100 Auburn Hills, MI 48326 USA</p>\r\n<p><a href=\"http://edscha.com/en/\" target=\"_blank\"><span class=\"glyphicon glyphicon-new-window\"></span>http://edscha.com/en/</a></p>\r\n<div class=\"text-center\">\r\n\t \r\n</div>",
				"latitude": 42.70393753051758,
				"longitude": -83.23855590820312,
				"title": "Edscha Automotive Michigan"
			}, {
				"body": "\r\n\r\n\r\n\r\n<h3 >Edscha Roof Systems S.A. de C.V.</h3>\r\n<p>Calle Ernesto Monroy Manzana 4 Lote 5, Parque Industrial Exportec II, Toluca, Edo. de Mexico, 50200, Mexico</p>\r\n<p><a href=\"http://www.edscha.com\" target=\"_blank\"><span class=\"glyphicon glyphicon-new-window\"></span>http://www.edscha.com</a></p>\r\n<div class=\"text-center\">\r\n\t \r\n</div>",
				"latitude": 19.354782104492188,
				"longitude": -99.62857055664062,
				"title": "Edscha Roof Systems S.A. de C.V."
			}, {
				"body": "\r\n\r\n\r\n\r\n<h3 >Jackson Matamoros S.A. de C.V.</h3>\r\n<p>Av. Uniomes No. 2300 Parque Industrial del Norte Matamoros, Tamaulipas 87316, Mexico</p>\r\n<p><a href=\"http://www.edscha-na.com\" target=\"_blank\"><span class=\"glyphicon glyphicon-new-window\"></span>http://www.edscha-na.com</a></p>\r\n<div class=\"text-center\">\r\n\t \r\n</div>",
				"latitude": 25.884767532348633,
				"longitude": -97.54475402832031,
				"title": "Jackson Matamoros S.A. de C.V."
			}, {
				"body": "\r\n\r\n\r\n\r\n<h3 >GGM Puebla, S.A. de C.V.</h3>\r\n<p>Parque Ind. FINSA Lateral Arco Norte Km. 25, No. 4 San Francisco Ocotl\u00e1n Parque Industrial Ocotl\u00e1n 72680 Puebla, M\u00e9xico </p>\r\n<p><a href=\"http://www.gestamp.com\" target=\"_blank\"><span class=\"glyphicon glyphicon-new-window\"></span>http://www.gestamp.com</a></p>\r\n<div class=\"text-center\">\r\n\t \r\n</div>",
				"latitude": 19.06073760986328,
				"longitude": -98.15809631347656,
				"title": "GGM Puebla, S.A. de C.V."
			}, {
				"body": "\r\n\r\n\r\n\r\n<h3 >Gestamp Toluca</h3>\r\n<p>Avda, Independencia s/n, Manzana 2 Lote \u2160, Col, Zona Industrial Toluca, 50070, Toluca, Mexico</p>\r\n<p><a href=\"http://www.gestamp.com/\" target=\"_blank\"><span class=\"glyphicon glyphicon-new-window\"></span>http://www.gestamp.com/</a></p>\r\n<div class=\"text-center\">\r\n\t \r\n</div>",
				"latitude": 19.299972534179688,
				"longitude": -99.63552856445312,
				"title": "Gestamp Toluca"
			}, {
				"body": "\r\n\r\n\r\n\r\n<h3 >Gestamp North America</h3>\r\n<p> 2701 Troy Center Drive, Troy, MI 48084 USA</p>\r\n<p><a href=\"http://www.gestamp.com/\" target=\"_blank\"><span class=\"glyphicon glyphicon-new-window\"></span>http://www.gestamp.com/</a></p>\r\n<div class=\"text-center\">\r\n\t \r\n</div>",
				"latitude": 42.5588264465332,
				"longitude": -83.16384887695312,
				"title": "Gestamp North America"
			}, {
				"body": "\r\n\r\n\r\n\r\n<h3 >Gestamp Mason</h3>\r\n<p>200 Kipp Road 48854 Mason, MI, USA </p>\r\n<p><a href=\"http://www.gestamp.com\" target=\"_blank\"><span class=\"glyphicon glyphicon-new-window\"></span>http://www.gestamp.com</a></p>\r\n<div class=\"text-center\">\r\n\t \r\n</div>",
				"latitude": 42.56772994995117,
				"longitude": -84.44526672363281,
				"title": "Gestamp Mason"
			}, {
				"body": "\r\n\r\n\r\n\r\n<h3 >Gestamp Alabama Inc</h3>\r\n<p>7000 Jefferson Metropolitan PKwy, McCalla, AL 35111 USA</p>\r\n<p><a href=\"http://www.gestamp.com/\" target=\"_blank\"><span class=\"glyphicon glyphicon-new-window\"></span>http://www.gestamp.com/</a></p>\r\n<div class=\"text-center\">\r\n\t \r\n</div>",
				"latitude": 33.306156158447266,
				"longitude": -87.04150390625,
				"title": "Gestamp Alabama Inc"
			}, {
				"body": "\r\n\r\n\r\n\r\n<h3 >Gestamp South Carolina LLC</h3>\r\n<p>1 LSP Road, Union, SC 29379 USA</p>\r\n<p><a href=\"http://www.gestamp.com/\" target=\"_blank\"><span class=\"glyphicon glyphicon-new-window\"></span>http://www.gestamp.com/</a></p>\r\n<div class=\"text-center\">\r\n\t \r\n</div>",
				"latitude": 34.759674072265625,
				"longitude": -81.64114379882812,
				"title": "Gestamp South Carolina LLC"
			}, {
				"body": "\r\n\r\n\r\n\r\n<h3 >Gestamp West Virginia, LLC</h3>\r\n<p>3100 Maccorkle Avenue, Building 307 25303 ,South Charleston, WV 25303-1473, USA</p>\r\n<p><a href=\"http://www.gestamp.com/\" target=\"_blank\"><span class=\"glyphicon glyphicon-new-window\"></span>http://www.gestamp.com/</a></p>\r\n<div class=\"text-center\">\r\n\t \r\n</div>",
				"latitude": 38.363861083984375,
				"longitude": -81.70184326171875,
				"title": "Gestamp West Virginia, LLC"
			}, {
				"body": "\r\n\r\n\r\n\r\n<h3 >Gestamp Chattanooga</h3>\r\n<p>3063 Hickory Valley Road 37421 Chattanooga TN, USA </p>\r\n<p><a href=\"http://www.gestamp.com\" target=\"_blank\"><span class=\"glyphicon glyphicon-new-window\"></span>http://www.gestamp.com</a></p>\r\n<div class=\"text-center\">\r\n\t \r\n</div>",
				"latitude": 35.07551574707031,
				"longitude": -85.15642547607422,
				"title": "Gestamp Chattanooga"
			}, {
				"body": "\r\n\r\n\r\n\r\n<h3 >Edscha Automotive SLP, S.A.P.I. de C.V.</h3>\r\n<p>Calle Dubai 103,\u3000Parque Logistik II, 79526 Villa de Reyes, San Luis Potos\u00ed, Mexico </p>\r\n<p><a href=\"http://edscha.com/en/\" target=\"_blank\"><span class=\"glyphicon glyphicon-new-window\"></span>http://edscha.com/en/</a></p>\r\n<div class=\"text-center\">\r\n\t \r\n</div>",
				"latitude": 21.9776668548584,
				"longitude": -100.8643569946289,
				"title": "Edscha Automotive SLP, S.A.P.I. de C.V."
			}
		],
		"2016 rank": "30",
		"2017 Rank": "27",
		"2017 Sales": "9,264",
		"2016 Sales": "8,354",
		"Import ID": "A034",
		"Products": ["Metal components ", " assemblies", " body-in-white", " chassis", " mechanisms"],
		"Marker Colour": "red"
	},
	"A035": {
		"Company": "GKN plc",
		"Corporate_Location_Lat": 42.6738814,
		"Corporate_Location_Lon": -83.2433331,
		"Locations": [{
				"body": "\r\n\r\n\r\n\r\n<h3 >GKN Driveline - Villagran</h3>\r\n<p>Carretera, Panamericana km 11, Col. El pintor, 38260 Villagran, Guanajuato, Mexico</p>\r\n<p><a href=\"http://www.gkn.com\" target=\"_blank\"><span class=\"glyphicon glyphicon-new-window\"></span>http://www.gkn.com</a></p>\r\n<div class=\"text-center\">\r\n\t \r\n</div>",
				"latitude": 20.51341438293457,
				"longitude": -100.99483489990234,
				"title": "GKN Driveline - Villagran"
			}, {
				"body": "\r\n\r\n\r\n\r\n<h3 >Hoganas Corp. </h3>\r\n<p>1001 Taylors Lane, Cinnaminson, NJ 08077-2017,USA</p>\r\n<p><a href=\"http://www.gkn.com/hoeganaes\" target=\"_blank\"><span class=\"glyphicon glyphicon-new-window\"></span>http://www.gkn.com/hoeganaes</a></p>\r\n<div class=\"text-center\">\r\n\t \r\n</div>",
				"latitude": 40.020999908447266,
				"longitude": -74.98450469970703,
				"title": "Hoganas Corp. "
			}, {
				"body": "\r\n\r\n\r\n\r\n<h3 >GKN Driveline Celaya S.A. de C.V.</h3>\r\n<p>2a Fraccion de Crespo, Carretera Panamericana km 284, 38110 Celaya, Guanajuato, Mexico</p>\r\n<p><a href=\"http://www.gkndriveline.com\" target=\"_blank\"><span class=\"glyphicon glyphicon-new-window\"></span>http://www.gkndriveline.com</a></p>\r\n<div class=\"text-center\">\r\n\t \r\n</div>",
				"latitude": 20.51929473876953,
				"longitude": -100.84115600585938,
				"title": "GKN Driveline Celaya S.A. de C.V."
			}, {
				"body": "\r\n\r\n\r\n\r\n<h3 >GKN Driveline - Roxboro</h3>\r\n<p>6400 Durham Road, Timberlake, NC 27583, USA</p>\r\n<p><a href=\"http://www.gkndriveline.com\" target=\"_blank\"><span class=\"glyphicon glyphicon-new-window\"></span>http://www.gkndriveline.com</a></p>\r\n<div class=\"text-center\">\r\n\t \r\n</div>",
				"latitude": 36.3057746887207,
				"longitude": -78.9730224609375,
				"title": "GKN Driveline - Roxboro"
			}
		],
		"2016 rank": "37",
		"2017 Rank": "31",
		"2017 Sales": "8,751",
		"2016 Sales": "6,740",
		"Import ID": "A035",
		"Products": ["Driveline halfshafts", " driveshafts ", " AWD; powder metal engine ", "transmission components; automotive structures ", " chassis systems"],
		"Marker Colour": "red"
	},
	"A100": {
		"Company": "ZF Friedrichshafen AG",
		"Corporate_Location_Lat": ,
		"Corporate_Location_Lon": ,
		"Locations": [{
				"body": "\r\n\r\n\r\n\r\n<h3 >ZF Electronics de Mexico S. de R.L. de C.V.</h3>\r\n<p>Parque Industrial Intermex, Av. Valle de Los Cedros #1650, Juarez, Chihuahua 32690 Mexico</p>\r\n<p><a href=\"http://www.zf.com\" target=\"_blank\"><span class=\"glyphicon glyphicon-new-window\"></span>http://www.zf.com</a></p>\r\n<div class=\"text-center\">\r\n\t \r\n</div>",
				"latitude": 31.69036293029785,
				"longitude": -106.42454528808594,
				"title": "ZF Electronics de Mexico S. de R.L. de C.V."
			}, {
				"body": "\r\n\r\n\r\n\r\n<h3 >ZF Sachs Suspension Mexico S.A. de C.V.</h3>\r\n<p>Km 3.5 Carretera El Salto - La Capilla, El Salto, Jalisco 45680 Mexico</p>\r\n<p><a href=\"http://www.zf.com\" target=\"_blank\"><span class=\"glyphicon glyphicon-new-window\"></span>http://www.zf.com</a></p>\r\n<div class=\"text-center\">\r\n\t \r\n</div>",
				"latitude": 20.571125030517578,
				"longitude": -103.30799102783203,
				"title": "ZF Sachs Suspension Mexico S.A. de C.V."
			}, {
				"body": "\r\n\r\n\r\n\r\n<h3 >ZF Lemfoerder Sistemas Automotrices S.A. de C.V.</h3>\r\n<p>Calle 7 Norte s/n Manzana J. Lotes 2 y 3, Parque Industrial Toluca 2000, Toluca, Edo de Mexico C. P. 50200</p>\r\n<p><a href=\"http://www.zf.com\" target=\"_blank\"><span class=\"glyphicon glyphicon-new-window\"></span>http://www.zf.com</a></p>\r\n<div class=\"text-center\">\r\n\t \r\n</div>",
				"latitude": 19.384252548217773,
				"longitude": -99.5762939453125,
				"title": "ZF Lemfoerder Sistemas Automotrices S.A. de C.V."
			}, {
				"body": "\r\n\r\n\r\n\r\n<h3 >ZF TRW Automotive Holdings Corp. (Formerly TRW Automotive)</h3>\r\n<p>12001 Tech Center Drive, Livonia, Michigan 48150, United States</p>\r\n<p><a href=\"http://www.zf.com\" target=\"_blank\"><span class=\"glyphicon glyphicon-new-window\"></span>http://www.zf.com</a></p>\r\n<div class=\"text-center\">\r\n\t \r\n</div>",
				"latitude": 42.372535705566406,
				"longitude": -83.34185791015625,
				"title": "ZF TRW Automotive Holdings Corp. (Formerly TRW Automotive)"
			}, {
				"body": "\r\n\r\n\r\n\r\n<h3 >ZF North America Inc.</h3>\r\n<p>15811 Centennial Drive, Northville, MI 48168, USA</p>\r\n<p><a href=\"http://www.zf.com\" target=\"_blank\"><span class=\"glyphicon glyphicon-new-window\"></span>http://www.zf.com</a></p>\r\n<div class=\"text-center\">\r\n\t \r\n</div>",
				"latitude": 42.39937973022461,
				"longitude": -83.50228881835938,
				"title": "ZF North America Inc."
			}, {
				"body": "\r\n\r\n\r\n\r\n<h3 >ZF Lemforder Corporation - Duncan</h3>\r\n<p>191 Parkway West, Duncan, SC 29334 USA</p>\r\n<p><a href=\"http://www.zf.com/\" target=\"_blank\"><span class=\"glyphicon glyphicon-new-window\"></span>http://www.zf.com/</a></p>\r\n<div class=\"text-center\">\r\n\t \r\n</div>",
				"latitude": 34.90294647216797,
				"longitude": -82.10804748535156,
				"title": "ZF Lemforder Corporation - Duncan"
			}, {
				"body": "\r\n\r\n\r\n\r\n<h3 >ZF Lemforder Corporation - Lapeer</h3>\r\n<p>3300 John Conley Drive, Lapeer, MI 48446 USA</p>\r\n<p><a href=\"http://www.zf.com/\" target=\"_blank\"><span class=\"glyphicon glyphicon-new-window\"></span>http://www.zf.com/</a></p>\r\n<div class=\"text-center\">\r\n\t \r\n</div>",
				"latitude": 43.03446960449219,
				"longitude": -83.36009979248047,
				"title": "ZF Lemforder Corporation - Lapeer"
			}, {
				"body": "\r\n\r\n\r\n\r\n<h3 >Robert Bosch Automotive Steering LLC <BR>(Formerly, ZF Steering Systems LLC)</h3>\r\n<p>15 Spiral Drive, Florence, KY 41042, USA</p>\r\n<p><a href=\"http://www.bosch-automotive-steering.com\" target=\"_blank\"><span class=\"glyphicon glyphicon-new-window\"></span>http://www.bosch-automotive-steering.com</a></p>\r\n<div class=\"text-center\">\r\n\t \r\n</div>",
				"latitude": 39.01839828491211,
				"longitude": -84.64305114746094,
				"title": "Robert Bosch Automotive Steering LLC <BR>(Formerly, ZF Steering Systems LLC)"
			}, {
				"body": "\r\n\r\n\r\n\r\n<h3 >ZF Sachs Automotive Mexico S.A. de C.V.</h3>\r\n<p>Industria Metalurgica 1010-2, Parque Industrial Ramos Arizpe, Ramos Arizpe 25900 Mexico</p>\r\n<p><a href=\"http://www.zf.com\" target=\"_blank\"><span class=\"glyphicon glyphicon-new-window\"></span>http://www.zf.com</a></p>\r\n<div class=\"text-center\">\r\n\t \r\n</div>",
				"latitude": 25.55668067932129,
				"longitude": -100.95842742919922,
				"title": "ZF Sachs Automotive Mexico S.A. de C.V."
			}, {
				"body": "\r\n\r\n\r\n\r\n<h3 >ZF Industries, Inc.</h3>\r\n<p>1261 Palmour Drive, Gainesville, GA 30501 USA</p>\r\n<p><a href=\"http://www.zf.com\" target=\"_blank\"><span class=\"glyphicon glyphicon-new-window\"></span>http://www.zf.com</a></p>\r\n<div class=\"text-center\">\r\n\t \r\n</div>",
				"latitude": 34.264671325683594,
				"longitude": -83.83211517333984,
				"title": "ZF Industries, Inc."
			}, {
				"body": "\r\n\r\n\r\n\r\n<h3 >ZF Electronics Corporation</h3>\r\n<p>11200 88th Avenue, Pleasant Prairie, WI 53158, USA</p>\r\n<p><a href=\"http://www.zf.com/\" target=\"_blank\"><span class=\"glyphicon glyphicon-new-window\"></span>http://www.zf.com/</a></p>\r\n<div class=\"text-center\">\r\n\t \r\n</div>",
				"latitude": 42.51432800292969,
				"longitude": -87.9141845703125,
				"title": "ZF Electronics Corporation"
			}, {
				"body": "\r\n\r\n\r\n\r\n<h3 >ZF Transmissions Gray Court, LLC</h3>\r\n<p>2846 North Old Laurens Road Gray Court, SC 29645, USA</p>\r\n<p><a href=\"http://www.zf.com\" target=\"_blank\"><span class=\"glyphicon glyphicon-new-window\"></span>http://www.zf.com</a></p>\r\n<div class=\"text-center\">\r\n\t \r\n</div>",
				"latitude": 34.6461296081543,
				"longitude": -82.15413665771484,
				"title": "ZF Transmissions Gray Court, LLC"
			}
		],
		"2016 rank": "2",
		"2017 Rank": "5",
		"2017 Sales": "34,481",
		"2016 Sales": "32,690",
		"Import ID": "A100",
		"Products": ["Transmissions", " chassis components ", " systems", " steering systems", "braking systems", " clutches", " dampers", " active ", " passive safety systems", ""],
		"Marker Colour": "green"
	},
	"A025": {
		"Company": "Dura Automotive Systems",
		"Corporate_Location_Lat": 42.6669058,
		"Corporate_Location_Lon": -83.2260705,
		"Locations": [{
				"body": "\r\n\r\n\r\n\r\n<h3 >DURA Automotive Systems, Inc.-Queretaro</h3>\r\n<p>Av. Penuelas Num. 7, Fracc Industrial San Pedrito, C.P. 76148 Queretaro, Qro. Mexico</p>\r\n<p><a href=\"http://www.duraauto.com\" target=\"_blank\"><span class=\"glyphicon glyphicon-new-window\"></span>http://www.duraauto.com</a></p>\r\n<div class=\"text-center\">\r\n\t \r\n</div>",
				"latitude": 20.63878059387207,
				"longitude": -100.39752197265625,
				"title": "DURA Automotive Systems, Inc.-Queretaro"
			}, {
				"body": "\r\n\r\n\r\n\r\n<h3 >Dura H. Matamoros, Tamaulipas</h3>\r\n<p>C/O Leora Customs Brokerage,  601 S. Vermillion Avenue, Brownsville, TX 78521 USA</p>\r\n<p><a href=\"http://www.duraauto.com\" target=\"_blank\"><span class=\"glyphicon glyphicon-new-window\"></span>http://www.duraauto.com</a></p>\r\n<div class=\"text-center\">\r\n\t \r\n</div>",
				"latitude": 25.906898498535156,
				"longitude": -97.4163589477539,
				"title": "Dura H. Matamoros, Tamaulipas"
			}, {
				"body": "\r\n\r\n\r\n\r\n<h3 >DURA Automotive Systems LLC.</h3>\r\n<p>1780 Pond Run, Auburn Hills, MI 48326, U.S.</p>\r\n<p><a href=\"http://www.duraauto.com\" target=\"_blank\"><span class=\"glyphicon glyphicon-new-window\"></span>http://www.duraauto.com</a></p>\r\n<div class=\"text-center\">\r\n\t \r\n</div>",
				"latitude": 42.66690444946289,
				"longitude": -83.22607421875,
				"title": "DURA Automotive Systems LLC."
			}, {
				"body": "\r\n\r\n\r\n\r\n<h3 >Global Automotive Systems, LLC</h3>\r\n<p>1780 Pond Run, Auburn Hills, MI 48326 USA</p>\r\n<p><a href=\"http://www.globalautosys.com/index.html\" target=\"_blank\"><span class=\"glyphicon glyphicon-new-window\"></span>http://www.globalautosys.com/index.html</a></p>\r\n<div class=\"text-center\">\r\n\t \r\n</div>",
				"latitude": 42.66690444946289,
				"longitude": -83.22607421875,
				"title": "Global Automotive Systems, LLC"
			}, {
				"body": "\r\n\r\n\r\n\r\n<h3 >DURA Automotive Systems, Inc..-Stockton, IL</h3>\r\n<p>301 South Simmons Street, Stockton, IL 61085, USA</p>\r\n<p><a href=\"http://www.duraauto.com\" target=\"_blank\"><span class=\"glyphicon glyphicon-new-window\"></span>http://www.duraauto.com</a></p>\r\n<div class=\"text-center\">\r\n\t \r\n</div>",
				"latitude": 42.348609924316406,
				"longitude": -90.00109100341797,
				"title": "DURA Automotive Systems, Inc..-Stockton, IL"
			}, {
				"body": "\r\n\r\n\r\n\r\n<h3 >DURA Automotive Systems, Inc.-Moberly, MO</h3>\r\n<p>1855 Robertson Road, Moberly, MO, 65270, USA</p>\r\n<p><a href=\"http://www.duraauto.com\" target=\"_blank\"><span class=\"glyphicon glyphicon-new-window\"></span>http://www.duraauto.com</a></p>\r\n<div class=\"text-center\">\r\n\t \r\n</div>",
				"latitude": 39.443206787109375,
				"longitude": -92.44223022460938,
				"title": "DURA Automotive Systems, Inc.-Moberly, MO"
			}, {
				"body": "\r\n\r\n\r\n\r\n<h3 >DURA Automotive Systems, Inc.-Milan</h3>\r\n<p>5210 Industrial Drive, Milan, TN, 38358, USA</p>\r\n<p><a href=\"http://www.duraauto.com\" target=\"_blank\"><span class=\"glyphicon glyphicon-new-window\"></span>http://www.duraauto.com</a></p>\r\n<div class=\"text-center\">\r\n\t \r\n</div>",
				"latitude": 35.92273712158203,
				"longitude": -88.73151397705078,
				"title": "DURA Automotive Systems, Inc.-Milan"
			}, {
				"body": "\r\n\r\n\r\n\r\n<h3 >DURA Automotive Systems, Inc.-Lawrenceburg</h3>\r\n<p>2200 Helton Drive, Lawrenceburg, TN 38464, USA</p>\r\n<p><a href=\"http://www.duraauto.com/\" target=\"_blank\"><span class=\"glyphicon glyphicon-new-window\"></span>http://www.duraauto.com/</a></p>\r\n<div class=\"text-center\">\r\n\t \r\n</div>",
				"latitude": 35.27372741699219,
				"longitude": -87.32903289794922,
				"title": "DURA Automotive Systems, Inc.-Lawrenceburg"
			}, {
				"body": "\r\n\r\n\r\n\r\n<h3 >DURA Automotive Systems, Inc.-Fremont, MI</h3>\r\n<p>502 Connie Street, Fremont, MI, 49412-0467, USA</p>\r\n<p><a href=\"http://www.duraauto.com\" target=\"_blank\"><span class=\"glyphicon glyphicon-new-window\"></span>http://www.duraauto.com</a></p>\r\n<div class=\"text-center\">\r\n\t \r\n</div>",
				"latitude": 43.46220397949219,
				"longitude": -85.9615707397461,
				"title": "DURA Automotive Systems, Inc.-Fremont, MI"
			}, {
				"body": "\r\n\r\n\r\n\r\n<h3 >Milan Metal Systems, LLC</h3>\r\n<p>555 Platt Road, Milan, MI 48160, USA </p>\r\n<p><a href=\"http://www.duraauto.com\" target=\"_blank\"><span class=\"glyphicon glyphicon-new-window\"></span>http://www.duraauto.com</a></p>\r\n<div class=\"text-center\">\r\n\t \r\n</div>",
				"latitude": 42.0758056640625,
				"longitude": -83.69537353515625,
				"title": "Milan Metal Systems, LLC"
			}, {
				"body": "\r\n\r\n\r\n\r\n<h3 > Global Automotive Systems (Metal Systems of Canada, LLC)</h3>\r\n<p>280 Victoria Street Dundalk, ON N0C1B0, Canada</p>\r\n<p><a href=\"http://www.duraauto.com\" target=\"_blank\"><span class=\"glyphicon glyphicon-new-window\"></span>http://www.duraauto.com</a></p>\r\n<div class=\"text-center\">\r\n\t \r\n</div>",
				"latitude": 44.16407012939453,
				"longitude": -80.39553833007812,
				"title": " Global Automotive Systems (Metal Systems of Canada, LLC)"
			}, {
				"body": "\r\n\r\n\r\n\r\n<h3 >Metal Systems de Monterrey, S. de R.L. de C.V.</h3>\r\n<p>Kappa No. 425 Parque Industrial Finsa Apodaca, Nuevo Leon C.P. 66600, Mexico</p>\r\n<p><a href=\"http://www.duraauto.com\" target=\"_blank\"><span class=\"glyphicon glyphicon-new-window\"></span>http://www.duraauto.com</a></p>\r\n<div class=\"text-center\">\r\n\t \r\n</div>",
				"latitude": 25.784624099731445,
				"longitude": -100.1409912109375,
				"title": "Metal Systems de Monterrey, S. de R.L. de C.V."
			}
		],
		"2016 rank": "94",
		"2017 Rank": "98",
		"2017 Sales": "1,430",
		"2016 Sales": "1,523",
		"Import ID": "A025",
		"Products": ["Mechatronic controls", " shift-by-wire systems; electronics", "actuators ", " advanced driver assist systems; lightweight structural"],
		"Marker Colour": "blue"
	},
	"A024": {
		"Company": "Draexlmaier Group",
		"Corporate_Location_Lat": 34.899428,
		"Corporate_Location_Lon": -82.091469,
		"Locations": [{
				"body": "\r\n\r\n\r\n\r\n<h3 >DAM Draexlmaier Automotive de Mexico</h3>\r\n<p>Carr. Riverena Km. 10.5 Lote 18, Parque Industrial Malquilpark,  Reynosa, Tamps., 88650, Mexico</p>\r\n<p><a href=\"http://www.draexlmaier.de\" target=\"_blank\"><span class=\"glyphicon glyphicon-new-window\"></span>http://www.draexlmaier.de</a></p>\r\n<div class=\"text-center\">\r\n\t \r\n</div>",
				"latitude": 26.08648109436035,
				"longitude": -98.31568908691406,
				"title": "DAM Draexlmaier Automotive de Mexico"
			}, {
				"body": "\r\n\r\n\r\n\r\n<h3 >DAA Draexlmaier Automotive of America LLC</h3>\r\n<p>1751 East Main Street, Duncan, SC 29334, USA</p>\r\n<p><a href=\"https://us.draexlmaier.com\" target=\"_blank\"><span class=\"glyphicon glyphicon-new-window\"></span>https://us.draexlmaier.com</a></p>\r\n<div class=\"text-center\">\r\n\t \r\n</div>",
				"latitude": 34.89890670776367,
				"longitude": -82.09063720703125,
				"title": "DAA Draexlmaier Automotive of America LLC"
			}
		],
		"2016 rank": "56",
		"2017 Rank": "51",
		"2017 Sales": "4,600",
		"2016 Sales": "3,971",
		"Import ID": "A024",
		"Products": ["Electrical systems", " electrical ", " electronic components", " interiors", "system assembly ", " battery systems"],
		"Marker Colour": "red"
	},
	"A027": {
		"Company": "Faurecia",
		"Corporate_Location_Lat": 42.661033,
		"Corporate_Location_Lon": -83.235179,
		"Locations": [{
				"body": "\r\n\r\n\r\n\r\n<h3 >Faurecia Duroplast, S.A. de C.V.</h3>\r\n<p>Parque Industrial Finsa Nave 17/ Autopista Mexico/ Puebla 72710 PUEBLA</p>\r\n<p><a href=\"http://www.faurecia.com\" target=\"_blank\"><span class=\"glyphicon glyphicon-new-window\"></span>http://www.faurecia.com</a></p>\r\n<div class=\"text-center\">\r\n\t \r\n</div>",
				"latitude": 19.085735321044922,
				"longitude": -98.19812774658203,
				"title": "Faurecia Duroplast, S.A. de C.V."
			}, {
				"body": "\r\n\r\n\r\n\r\n<h3 >Faurecia Clean Mobility - Toledo</h3>\r\n<p>No. 5225, Telegraph Road, Toledo, OH 43612, USA</p>\r\n<p><a href=\"http://www.faurecia.com\" target=\"_blank\"><span class=\"glyphicon glyphicon-new-window\"></span>http://www.faurecia.com</a></p>\r\n<div class=\"text-center\">\r\n\t \r\n</div>",
				"latitude": 41.71077346801758,
				"longitude": -83.5494613647461,
				"title": "Faurecia Clean Mobility - Toledo"
			}, {
				"body": "\r\n\r\n\r\n\r\n<h3 >Yanfeng Automotive Interiors Co., Ltd.</h3>\r\n<p>41935 Twelve Mile Rd, Novi, MI 48377, USA</p>\r\n<p><a href=\"http://www.yfai.com/\" target=\"_blank\"><span class=\"glyphicon glyphicon-new-window\"></span>http://www.yfai.com/</a></p>\r\n<div class=\"text-center\">\r\n\t \r\n</div>",
				"latitude": 42.494781494140625,
				"longitude": -83.46156311035156,
				"title": "Yanfeng Automotive Interiors Co., Ltd."
			}, {
				"body": "\r\n\r\n\r\n\r\n<h3 >Faurecia Automotive Seating Canada Ltd.</h3>\r\n<p>100 Reagens Industrial Parkway, L3Z 2A5 Bradford West Gwillimbury, Ontario, Canada</p>\r\n<p><a href=\"http://www.faurecia.com\" target=\"_blank\"><span class=\"glyphicon glyphicon-new-window\"></span>http://www.faurecia.com</a></p>\r\n<div class=\"text-center\">\r\n\t \r\n</div>",
				"latitude": 44.14314270019531,
				"longitude": -79.61652374267578,
				"title": "Faurecia Automotive Seating Canada Ltd."
			}, {
				"body": "\r\n\r\n\r\n\r\n<h3 >Faurecia Clean Mobility - Troy</h3>\r\n<p>1255 Archer Drive, Troy, OH 45373 USA</p>\r\n<p><a href=\"http://www.faurecia.com\" target=\"_blank\"><span class=\"glyphicon glyphicon-new-window\"></span>http://www.faurecia.com</a></p>\r\n<div class=\"text-center\">\r\n\t \r\n</div>",
				"latitude": 40.02747344970703,
				"longitude": -84.2207260131836,
				"title": "Faurecia Clean Mobility - Troy"
			}, {
				"body": "\r\n\r\n\r\n\r\n<h3 >Faurecia Interior Systems</h3>\r\n<p>7700 E Michigan Ave, Saline, MI, 48176-1721 USA</p>\r\n<p><a href=\"http://www.faurecia.com\" target=\"_blank\"><span class=\"glyphicon glyphicon-new-window\"></span>http://www.faurecia.com</a></p>\r\n<div class=\"text-center\">\r\n\t \r\n</div>",
				"latitude": 42.1758918762207,
				"longitude": -83.76561737060547,
				"title": "Faurecia Interior Systems"
			}, {
				"body": "\r\n\r\n\r\n\r\n<h3 >Detroit Manufacturing Systems LLC</h3>\r\n<p>12701 Southfield Rd, Building A, Detroit MI, 48223 USA</p>\r\n<p><a href=\"http://dms-na.com\" target=\"_blank\"><span class=\"glyphicon glyphicon-new-window\"></span>http://dms-na.com</a></p>\r\n<div class=\"text-center\">\r\n\t \r\n</div>",
				"latitude": 42.38193893432617,
				"longitude": -83.22425842285156,
				"title": "Detroit Manufacturing Systems LLC"
			}, {
				"body": "\r\n\r\n\r\n\r\n<h3 >Faurecia Howa Interiors - Mexico</h3>\r\n<p>Mexico</p>\r\n<p><a href=\"http://www.faurecia.com\" target=\"_blank\"><span class=\"glyphicon glyphicon-new-window\"></span>http://www.faurecia.com</a></p>\r\n<div class=\"text-center\">\r\n\t \r\n</div>",
				"latitude": 23.63450050354004,
				"longitude": -102.55278778076172,
				"title": "Faurecia Howa Interiors - Mexico"
			}, {
				"body": "\r\n\r\n\r\n\r\n<h3 >Faurecia Interior Systems, Inc.-Auburn Hills MI</h3>\r\n<p>2500 Executive Hills Boulevard Auburn Hills, Michigan 48326 - USA</p>\r\n<p><a href=\"http://www.faurecia.com/en\" target=\"_blank\"><span class=\"glyphicon glyphicon-new-window\"></span>http://www.faurecia.com/en</a></p>\r\n<div class=\"text-center\">\r\n\t \r\n</div>",
				"latitude": 42.64626693725586,
				"longitude": -83.24011993408203,
				"title": "Faurecia Interior Systems, Inc.-Auburn Hills MI"
			}, {
				"body": "\r\n\r\n\r\n\r\n<h3 >Faurecia Automotive Seating - San Luis Potosi Plant</h3>\r\n<p>Av. Central #200, Parque Logistico, 78395 San Luis Potosi, Mexico</p>\r\n<p><a href=\"http://www.faurecia.com\" target=\"_blank\"><span class=\"glyphicon glyphicon-new-window\"></span>http://www.faurecia.com</a></p>\r\n<div class=\"text-center\">\r\n\t \r\n</div>",
				"latitude": 22.093320846557617,
				"longitude": -100.89595794677734,
				"title": "Faurecia Automotive Seating - San Luis Potosi Plant"
			}, {
				"body": "\r\n\r\n\r\n\r\n<h3 >Faurecia Exhaust Mexicana, S.A. de C.V.</h3>\r\n<p>De Cv, Us Blvd Henry Ford 53 Hermosillo, Mexico</p>\r\n<p><a href=\"http://www.faurecia.com\" target=\"_blank\"><span class=\"glyphicon glyphicon-new-window\"></span>http://www.faurecia.com</a></p>\r\n<div class=\"text-center\">\r\n\t \r\n</div>",
				"latitude": 29.072967529296875,
				"longitude": -110.95591735839844,
				"title": "Faurecia Exhaust Mexicana, S.A. de C.V."
			}, {
				"body": "\r\n\r\n\r\n\r\n<h3 >Faurecia Automotive Seating - Wentzville</h3>\r\n<p>No.555, Edinger Rd, 63385-2819 Wentzville, Missouri, USA</p>\r\n<p><a href=\"http://www.faurecia.com\" target=\"_blank\"><span class=\"glyphicon glyphicon-new-window\"></span>http://www.faurecia.com</a></p>\r\n<div class=\"text-center\">\r\n\t \r\n</div>",
				"latitude": 38.82358932495117,
				"longitude": -90.83219909667969,
				"title": "Faurecia Automotive Seating - Wentzville"
			}, {
				"body": "\r\n\r\n\r\n\r\n<h3 >Faurecia Clean Mobility - Columbus </h3>\r\n<p>601 S Gladstone Ave, Columbus, IN 47201, USA</p>\r\n<p><a href=\"http://na.faurecia.com/\" target=\"_blank\"><span class=\"glyphicon glyphicon-new-window\"></span>http://na.faurecia.com/</a></p>\r\n<div class=\"text-center\">\r\n\t \r\n</div>",
				"latitude": 39.19009780883789,
				"longitude": -85.89334106445312,
				"title": "Faurecia Clean Mobility - Columbus "
			}, {
				"body": "\r\n\r\n\r\n\r\n<h3 >SAS Automotive Systems S.A. de C.V.</h3>\r\n<p>Autopista Mexico - Puebla, km 117 Lote 2, San Lorenzo Almecatla, 72710 Puebla, Mexico</p>\r\n<p><a href=\"http://www.sas-automotive.com\" target=\"_blank\"><span class=\"glyphicon glyphicon-new-window\"></span>http://www.sas-automotive.com</a></p>\r\n<div class=\"text-center\">\r\n\t \r\n</div>",
				"latitude": 19.11582374572754,
				"longitude": -98.24559020996094,
				"title": "SAS Automotive Systems S.A. de C.V."
			}, {
				"body": "\r\n\r\n\r\n\r\n<h3 >Yanfeng Automotive Interiors Co., Ltd. - Chattanooga Plant</h3>\r\n<p>7463 Bonnyshire Drive, Chattanooga, TN 37416, USA</p>\r\n<p><a href=\"http://www.yfai.com/\" target=\"_blank\"><span class=\"glyphicon glyphicon-new-window\"></span>http://www.yfai.com/</a></p>\r\n<div class=\"text-center\">\r\n\t \r\n</div>",
				"latitude": 35.07040786743164,
				"longitude": -85.16443634033203,
				"title": "Yanfeng Automotive Interiors Co., Ltd. - Chattanooga Plant"
			}, {
				"body": "\r\n\r\n\r\n\r\n<h3 >Faurecia Automotive Seating - Huejotzingo Plant</h3>\r\n<p>No. 32, Circuito Esteban de Antu\u0441ano, Fraccionamiento Industrial Cuidad Textil II, 74160 Huejotzingo, Puebla, Mexico</p>\r\n<p><a href=\"http://www.faurecia.com\" target=\"_blank\"><span class=\"glyphicon glyphicon-new-window\"></span>http://www.faurecia.com</a></p>\r\n<div class=\"text-center\">\r\n\t \r\n</div>",
				"latitude": 19.158945083618164,
				"longitude": -98.40471649169922,
				"title": "Faurecia Automotive Seating - Huejotzingo Plant"
			}, {
				"body": "\r\n\r\n\r\n\r\n<h3 >SAS Automotive USA Inc.</h3>\r\n<p>42555 Merrill Rd, Sterling Heights, MI 48314, USA</p>\r\n<p><a href=\"http://www.sas-automotive.com\" target=\"_blank\"><span class=\"glyphicon glyphicon-new-window\"></span>http://www.sas-automotive.com</a></p>\r\n<div class=\"text-center\">\r\n\t \r\n</div>",
				"latitude": 42.60578536987305,
				"longitude": -83.04751586914062,
				"title": "SAS Automotive USA Inc."
			}, {
				"body": "\r\n\r\n\r\n\r\n<h3 >Alsentis LLC</h3>\r\n<p>1261 S. Waverly Rd., Holland, MI 49423, USA</p>\r\n<p><a href=\"http://www.alsentis.com\" target=\"_blank\"><span class=\"glyphicon glyphicon-new-window\"></span>http://www.alsentis.com</a></p>\r\n<div class=\"text-center\">\r\n\t \r\n</div>",
				"latitude": 42.75413513183594,
				"longitude": -86.07642364501953,
				"title": "Alsentis LLC"
			}, {
				"body": "\r\n\r\n\r\n\r\n<h3 >Promethient, Inc.</h3>\r\n<p>2382 Cass Rd., Traverse City, MI 49684, USA</p>\r\n<p><a href=\"https://thermavance.com/\" target=\"_blank\"><span class=\"glyphicon glyphicon-new-window\"></span>https://thermavance.com/</a></p>\r\n<div class=\"text-center\">\r\n\t \r\n</div>",
				"latitude": 44.721397399902344,
				"longitude": -85.6250991821289,
				"title": "Promethient, Inc."
			}
		],
		"2016 rank": "8",
		"2017 Rank": "10",
		"2017 Sales": "19,170",
		"2016 Sales": "20,700",
		"Import ID": "A027",
		"Products": ["Seating", " emissions control technologies ", " interior systems"],
		"Marker Colour": "blue"
	},
	"A026": {
		"Company": "Eberspaecher Gruppe GmbH & Co. KG",
		"Corporate_Location_Lat": ,
		"Corporate_Location_Lon": ,
		"Locations": [{
				"body": "\r\n\r\n\r\n\r\n<h3 >Espar Heater Systems</h3>\r\n<p>6099A Vipond Drive, Mississauga, Ontario, L5T 2B2, CANADA</p>\r\n<p><a href=\"http://www.espar.com\" target=\"_blank\"><span class=\"glyphicon glyphicon-new-window\"></span>http://www.espar.com</a></p>\r\n<div class=\"text-center\">\r\n\t \r\n</div>",
				"latitude": 43.65315628051758,
				"longitude": -79.65168762207031,
				"title": "Espar Heater Systems"
			}, {
				"body": "\r\n\r\n\r\n\r\n<h3 >Eberspaecher North America, Inc. - Novi</h3>\r\n<p>29101 Haggerty Road Novi, MI 48377-2913, USA</p>\r\n<p><a href=\"http://www.eberspaecher.com/\" target=\"_blank\"><span class=\"glyphicon glyphicon-new-window\"></span>http://www.eberspaecher.com/</a></p>\r\n<div class=\"text-center\">\r\n\t \r\n</div>",
				"latitude": 42.508644104003906,
				"longitude": -83.43892669677734,
				"title": "Eberspaecher North America, Inc. - Novi"
			}, {
				"body": "\r\n\r\n\r\n\r\n<h3 >Eberspaecher North America, Inc. - Brighton</h3>\r\n<p>2035 Orndorf Road Brighton, MI 48116, USA</p>\r\n<p><a href=\"http://www.eberspaecher.com/\" target=\"_blank\"><span class=\"glyphicon glyphicon-new-window\"></span>http://www.eberspaecher.com/</a></p>\r\n<div class=\"text-center\">\r\n\t \r\n</div>",
				"latitude": 42.5401725769043,
				"longitude": -83.7926254272461,
				"title": "Eberspaecher North America, Inc. - Brighton"
			}, {
				"body": "\r\n\r\n\r\n\r\n<h3 >Eberspaecher North America, Inc. - Northport</h3>\r\n<p>6801 5th Street, Suite B, Northport, AL 35476 U.S.A.</p>\r\n<p><a href=\"http://www.eberspaecher.com/\" target=\"_blank\"><span class=\"glyphicon glyphicon-new-window\"></span>http://www.eberspaecher.com/</a></p>\r\n<div class=\"text-center\">\r\n\t \r\n</div>",
				"latitude": 33.22734832763672,
				"longitude": -87.62437438964844,
				"title": "Eberspaecher North America, Inc. - Northport"
			}, {
				"body": "\r\n\r\n\r\n\r\n<h3 >Eberspaecher North America, Inc. - Wixom</h3>\r\n<p>30220 Oak Creek, Wixom, MI 48393, USA</p>\r\n<p><a href=\"http://www.eberspaecher.com\" target=\"_blank\"><span class=\"glyphicon glyphicon-new-window\"></span>http://www.eberspaecher.com</a></p>\r\n<div class=\"text-center\">\r\n\t \r\n</div>",
				"latitude": 42.51192855834961,
				"longitude": -83.54495239257812,
				"title": "Eberspaecher North America, Inc. - Wixom"
			}, {
				"body": "\r\n\r\n\r\n\r\n<h3 >Eberspaecher Vecture Inc. (Formerly Vecture Inc.)</h3>\r\n<p>8900 Keele St. Unit 3 Concord, ON L4K 2N2, Canada</p>\r\n<p><a href=\"http://www.vectureinc.com\" target=\"_blank\"><span class=\"glyphicon glyphicon-new-window\"></span>http://www.vectureinc.com</a></p>\r\n<div class=\"text-center\">\r\n\t \r\n</div>",
				"latitude": 43.828365325927734,
				"longitude": -79.50743865966797,
				"title": "Eberspaecher Vecture Inc. (Formerly Vecture Inc.)"
			}, {
				"body": "\r\n\r\n\r\n\r\n<h3 >Eberspaecher Climate Control Systems, S.A. de C.V</h3>\r\n<p>Av. Ejercito Nacional 418, Int. 401, Col. Polanco V seccion , Delg. Miguel Hidalgo, Mexico</p>\r\n<p><a href=\"https://www.eberspaecher.com/en/\" target=\"_blank\"><span class=\"glyphicon glyphicon-new-window\"></span>https://www.eberspaecher.com/en/</a></p>\r\n<div class=\"text-center\">\r\n\t \r\n</div>",
				"latitude": 19.43095588684082,
				"longitude": -99.18505859375,
				"title": "Eberspaecher Climate Control Systems, S.A. de C.V"
			}, {
				"body": "\r\n\r\n\r\n\r\n<h3 >Eberspaecher North America Inc. - Gen Mar</h3>\r\n<p>43700 Gen Mar, Novi, MI 48375, USA</p>\r\n<p><a href=\"http://www.eberspaecher.com\" target=\"_blank\"><span class=\"glyphicon glyphicon-new-window\"></span>http://www.eberspaecher.com</a></p>\r\n<div class=\"text-center\">\r\n\t \r\n</div>",
				"latitude": 42.47447204589844,
				"longitude": -83.4788589477539,
				"title": "Eberspaecher North America Inc. - Gen Mar"
			}, {
				"body": "\r\n\r\n\r\n\r\n<h3 >Eberspaecher North America Inc. - Spartanburg</h3>\r\n<p>5679 N. Blackstock Road, Spartanburg, SC 29303, USA</p>\r\n<p><a href=\"http://www.eberspaecher.com\" target=\"_blank\"><span class=\"glyphicon glyphicon-new-window\"></span>http://www.eberspaecher.com</a></p>\r\n<div class=\"text-center\">\r\n\t \r\n</div>",
				"latitude": 34.99533462524414,
				"longitude": -82.03710174560547,
				"title": "Eberspaecher North America Inc. - Spartanburg"
			}
		],
		"2016 rank": "51",
		"2017 Rank": "47",
		"2017 Sales": "4,948",
		"2016 Sales": "4,652",
		"Import ID": "A026",
		"Products": ["Silencers", " catalytic converters", " particulate filters", " manifolds", "vehicle heaters", " electrical vehicle heaters ", " electronics"],
		"Marker Colour": "red"
	},
	"A021": {
		"Company": "Delphi Technologies*",
		"Corporate_Location_Lat": ,
		"Corporate_Location_Lon": ,
		"Locations": [{
				"body": "\r\n\r\n\r\n\r\n<h3 >Specialty Electronics, Inc.</h3>\r\n<p>909 North Cleveland Street, Enid, OK 73703 USA</p>\r\n<p><a href=\"http://www.aptiv.com\" target=\"_blank\"><span class=\"glyphicon glyphicon-new-window\"></span>http://www.aptiv.com</a></p>\r\n<div class=\"text-center\">\r\n\t \r\n</div>",
				"latitude": 36.405555725097656,
				"longitude": -97.90796661376953,
				"title": "Specialty Electronics, Inc."
			}, {
				"body": "\r\n\r\n\r\n\r\n<h3 >Delphi Packard Electric Systems Company Ltd.</h3>\r\n<p>5725 Delphi Drive Troy, Michigan 48098-2815, USA</p>\r\n<p><a href=\"http://www.aptiv.com\" target=\"_blank\"><span class=\"glyphicon glyphicon-new-window\"></span>http://www.aptiv.com</a></p>\r\n<div class=\"text-center\">\r\n\t \r\n</div>",
				"latitude": 42.60144805908203,
				"longitude": -83.16192626953125,
				"title": "Delphi Packard Electric Systems Company Ltd."
			}, {
				"body": "\r\n\r\n\r\n\r\n<h3 >Productos Delco de Chihuahua, S.A. de C.V</h3>\r\n<p>Av. de las Industrias No. 4909 Zona Industrial Nombre de Dios, Chihuahua 31110, Chihuahua</p>\r\n<p><a href=\"http://www.aptiv.com\" target=\"_blank\"><span class=\"glyphicon glyphicon-new-window\"></span>http://www.aptiv.com</a></p>\r\n<div class=\"text-center\">\r\n\t \r\n</div>",
				"latitude": 28.672494888305664,
				"longitude": -106.08637237548828,
				"title": "Productos Delco de Chihuahua, S.A. de C.V"
			}, {
				"body": "\r\n\r\n\r\n\r\n<h3 >Condura, S. de R.L. de C.V.</h3>\r\n<p>PONIENTE 4 NORTE 7 # 6 CD. INDUSTRIAL C.P. 87499 MATAMOROS TAMAULIPAS</p>\r\n<p><a href=\"http://www.aptiv.com\" target=\"_blank\"><span class=\"glyphicon glyphicon-new-window\"></span>http://www.aptiv.com</a></p>\r\n<div class=\"text-center\">\r\n\t \r\n</div>",
				"latitude": 25.842247009277344,
				"longitude": -97.43938446044922,
				"title": "Condura, S. de R.L. de C.V."
			}, {
				"body": "\r\n\r\n\r\n\r\n<h3 >Delphi Delco Electronics de Mexico, S.A. de C.V</h3>\r\n<p>Carr. A Matamoros KM 13.5 Reynosa, Tamaulipas 88500, Mexico</p>\r\n<p><a href=\"http://www.aptiv.com\" target=\"_blank\"><span class=\"glyphicon glyphicon-new-window\"></span>http://www.aptiv.com</a></p>\r\n<div class=\"text-center\">\r\n\t \r\n</div>",
				"latitude": 26.065202713012695,
				"longitude": -98.27742004394531,
				"title": "Delphi Delco Electronics de Mexico, S.A. de C.V"
			}, {
				"body": "\r\n\r\n\r\n\r\n<h3 >Delphi Cableados, S.A. de C.V</h3>\r\n<p>Av. de la Fabricas 5838 Nuevo Laredo, Tamaulipas 88275, Mexico</p>\r\n<p><a href=\"http://www.aptiv.com\" target=\"_blank\"><span class=\"glyphicon glyphicon-new-window\"></span>http://www.aptiv.com</a></p>\r\n<div class=\"text-center\">\r\n\t \r\n</div>",
				"latitude": 27.445472717285156,
				"longitude": -99.50070190429688,
				"title": "Delphi Cableados, S.A. de C.V"
			}, {
				"body": "\r\n\r\n\r\n\r\n<h3 >Esterline Interface Technologies</h3>\r\n<p>600 W. Wilbur Avenue, Coeur d'Alene, ID 83815 USA</p>\r\n<p><a href=\"http://www.esterline.com\" target=\"_blank\"><span class=\"glyphicon glyphicon-new-window\"></span>http://www.esterline.com</a></p>\r\n<div class=\"text-center\">\r\n\t \r\n</div>",
				"latitude": 47.73563003540039,
				"longitude": -116.79617309570312,
				"title": "Esterline Interface Technologies"
			}, {
				"body": "\r\n\r\n\r\n\r\n<h3 >Aptiv PLC (Formerly Delphi Automotive PLC)</h3>\r\n<p>5725 Delphi Drive, Troy, Michigan 48098-2815, USA</p>\r\n<p><a href=\"http://www.aptiv.com\" target=\"_blank\"><span class=\"glyphicon glyphicon-new-window\"></span>http://www.aptiv.com</a></p>\r\n<div class=\"text-center\">\r\n\t \r\n</div>",
				"latitude": 42.60144805908203,
				"longitude": -83.16192626953125,
				"title": "Aptiv PLC (Formerly Delphi Automotive PLC)"
			}, {
				"body": "\r\n\r\n\r\n\r\n<h3 >Delphi Alambrados Automotrices, S.A. de C.V</h3>\r\n<p>Calle Iturbide # 6970, Nuevo Laredo TAM, 88000, Mexico</p>\r\n<p><a href=\"http://www.aptiv.com\" target=\"_blank\"><span class=\"glyphicon glyphicon-new-window\"></span>http://www.aptiv.com</a></p>\r\n<div class=\"text-center\">\r\n\t \r\n</div>",
				"latitude": 25.757213592529297,
				"longitude": -100.27178955078125,
				"title": "Delphi Alambrados Automotrices, S.A. de C.V"
			}, {
				"body": "\r\n\r\n\r\n\r\n<h3 >Delphi Diesel Systems, S.A. de C.V.</h3>\r\n<p>Blvd. Isidro Lopez Zertuche No. 4248, Col. Virreyes,  Saltillo, Coah., 25220</p>\r\n<p><a href=\"http://www.delphi.com\" target=\"_blank\"><span class=\"glyphicon glyphicon-new-window\"></span>http://www.delphi.com</a></p>\r\n<div class=\"text-center\">\r\n\t \r\n</div>",
				"latitude": 25.47191619873047,
				"longitude": -100.98705291748047,
				"title": "Delphi Diesel Systems, S.A. de C.V."
			}, {
				"body": "\r\n\r\n\r\n\r\n<h3 >Delphi Ensamble de Cables y Componentes, S. de R.L. de C.V</h3>\r\n<p>Av. Las Fabricas No. 5838, Parque Industrial Finsa,  Nuevo Laredo, Tamps., 88275</p>\r\n<p><a href=\"http://www.aptiv.com\" target=\"_blank\"><span class=\"glyphicon glyphicon-new-window\"></span>http://www.aptiv.com</a></p>\r\n<div class=\"text-center\">\r\n\t \r\n</div>",
				"latitude": 27.443689346313477,
				"longitude": -99.51451110839844,
				"title": "Delphi Ensamble de Cables y Componentes, S. de R.L. de C.V"
			}, {
				"body": "\r\n\r\n\r\n\r\n<h3 >Delphi Sistemas de Energia, S.A. de C.V</h3>\r\n<p>Av. De Las Industrias No. 4907, Col. Nombre de Dios,  Chihuahua, Chih., 31110</p>\r\n<p><a href=\"http://www.delphi.com\" target=\"_blank\"><span class=\"glyphicon glyphicon-new-window\"></span>http://www.delphi.com</a></p>\r\n<div class=\"text-center\">\r\n\t \r\n</div>",
				"latitude": 28.672494888305664,
				"longitude": -106.08637237548828,
				"title": "Delphi Sistemas de Energia, S.A. de C.V"
			}, {
				"body": "\r\n\r\n\r\n\r\n<h3 >HellermannTyton - North American Headquarters</h3>\r\n<p>7930 N. Faulkner Rd., Milwaukee, WI 53224, USA</p>\r\n<p><a href=\"http://www.hellermanntyton.us/\" target=\"_blank\"><span class=\"glyphicon glyphicon-new-window\"></span>http://www.hellermanntyton.us/</a></p>\r\n<div class=\"text-center\">\r\n\t \r\n</div>",
				"latitude": 43.16515350341797,
				"longitude": -88.0218734741211,
				"title": "HellermannTyton - North American Headquarters"
			}, {
				"body": "\r\n\r\n\r\n\r\n<h3 >Centro Tecnico Herramental, S.A. de C.V. (Delphi Sistemas de Energia 39)</h3>\r\n<p>Carr. Saltillo Piedras Negras Km. 8.54 No. 8540, S/C Ramos Arizpe Coah. 25900, Mexico</p>\r\n<p><a href=\"https://www.delphi.com/\" target=\"_blank\"><span class=\"glyphicon glyphicon-new-window\"></span>https://www.delphi.com/</a></p>\r\n<div class=\"text-center\">\r\n\t \r\n</div>",
				"latitude": 28.70049476623535,
				"longitude": -100.53109741210938,
				"title": "Centro Tecnico Herramental, S.A. de C.V. (Delphi Sistemas de Energia 39)"
			}, {
				"body": "\r\n\r\n\r\n\r\n<h3 >Centro Tecnico Herramental, S.A. de C.V. (Planta Chasis)</h3>\r\n<p>Carr. Saltillo Piedras Negras Km. 8.54 No. 8540, S/C Ramos Arizpe Coah. 25900, Mexico</p>\r\n<p><a href=\"http://www.delphi.com\" target=\"_blank\"><span class=\"glyphicon glyphicon-new-window\"></span>http://www.delphi.com</a></p>\r\n<div class=\"text-center\">\r\n\t \r\n</div>",
				"latitude": 28.70049476623535,
				"longitude": -100.53109741210938,
				"title": "Centro Tecnico Herramental, S.A. de C.V. (Planta Chasis)"
			}, {
				"body": "\r\n\r\n\r\n\r\n<h3 >Componentes Mecanicos de Matamoros, S.A. de C.V. (Planta I y II)</h3>\r\n<p>Av. Michigan y Prolongacion Uniones S/N, Parque Industrial del Norte, Matamoros Tamps. 87300, Mexico</p>\r\n<p><a href=\"http://www.delphi.com\" target=\"_blank\"><span class=\"glyphicon glyphicon-new-window\"></span>http://www.delphi.com</a></p>\r\n<div class=\"text-center\">\r\n\t \r\n</div>",
				"latitude": 25.884523391723633,
				"longitude": -97.54481506347656,
				"title": "Componentes Mecanicos de Matamoros, S.A. de C.V. (Planta I y II)"
			}, {
				"body": "\r\n\r\n\r\n\r\n<h3 >Componentes Mecanicos de Matamoros, S.A. de C.V. (Planta III)</h3>\r\n<p>Av. Uniones y Av. Las Rucias No. 2800, Parque Industrial del Norte (Finsa), Matamoros Tamps. 87310, Mexico</p>\r\n<p><a href=\"http://www.aptiv.com\" target=\"_blank\"><span class=\"glyphicon glyphicon-new-window\"></span>http://www.aptiv.com</a></p>\r\n<div class=\"text-center\">\r\n\t \r\n</div>",
				"latitude": 25.89388656616211,
				"longitude": -97.54503631591797,
				"title": "Componentes Mecanicos de Matamoros, S.A. de C.V. (Planta III)"
			}, {
				"body": "\r\n\r\n\r\n\r\n<h3 >Delphi Conecction Systems Tijuana, S.A. de C.V.</h3>\r\n<p>Blvd. Pacifico No. 14532, Parque Industrial Pacifico, Tijuana  B.C. 22709, Mexico</p>\r\n<p><a href=\"http://www.aptiv.com\" target=\"_blank\"><span class=\"glyphicon glyphicon-new-window\"></span>http://www.aptiv.com</a></p>\r\n<div class=\"text-center\">\r\n\t \r\n</div>",
				"latitude": 32.47419357299805,
				"longitude": -116.9894027709961,
				"title": "Delphi Conecction Systems Tijuana, S.A. de C.V."
			}, {
				"body": "\r\n\r\n\r\n\r\n<h3 >Antaya Technologies Corporation </h3>\r\n<p>72 Fenner Street Cranston, RI 02910, USA</p>\r\n<p><a href=\"http://www.antaya.com/\" target=\"_blank\"><span class=\"glyphicon glyphicon-new-window\"></span>http://www.antaya.com/</a></p>\r\n<div class=\"text-center\">\r\n\t \r\n</div>",
				"latitude": 41.77450942993164,
				"longitude": -71.42424011230469,
				"title": "Antaya Technologies Corporation "
			}, {
				"body": "\r\n\r\n\r\n\r\n<h3 >HellermannTyton S. de R.L. de C.V.</h3>\r\n<p>Anillo Perifrico Sur 7980 Edificio 2-D, Parque Industrial Tecnolgico II, Santa Mara Tequepexpan, Tlaquepaque, Jalisco 45601, Mexico</p>\r\n<p><a href=\"http://www.hellermanntyton.com\" target=\"_blank\"><span class=\"glyphicon glyphicon-new-window\"></span>http://www.hellermanntyton.com</a></p>\r\n<div class=\"text-center\">\r\n\t \r\n</div>",
				"latitude": 20.610628128051758,
				"longitude": -103.40217590332031,
				"title": "HellermannTyton S. de R.L. de C.V."
			}, {
				"body": "\r\n\r\n\r\n\r\n<h3 >Delphi Technologies PLC <br>(Formerly Powertrain segment of Delphi Automotive PLC)</h3>\r\n<p>Courteney Road, Hoath Way, Gillingham, ME8 0RU, UK</p>\r\n<p><a href=\"https://www.delphi.com/\" target=\"_blank\"><span class=\"glyphicon glyphicon-new-window\"></span>https://www.delphi.com/</a></p>\r\n<div class=\"text-center\">\r\n\t \r\n</div>",
				"latitude": 42.60144805908203,
				"longitude": -83.16192626953125,
				"title": "Delphi Technologies PLC <br>(Formerly Powertrain segment of Delphi Automotive PLC)"
			}
		],
		"2016 rank": "12",
		"2017 Rank": "58",
		"2017 Sales": "3,902",
		"2016 Sales": "3,562",
		"Import ID": "A021",
		"Products": ["Electric vehicle ", " internal combustion engine propulsion systems", "emissions ", " fuel economy solutions"],
		"Marker Colour": "green"
	},
	"A020": {
		"Company": "Dana Inc.",
		"Corporate_Location_Lat": ,
		"Corporate_Location_Lon": ,
		"Locations": [{
				"body": "\r\n\r\n\r\n\r\n<h3 >Dana Sealing Products, LLC</h3>\r\n<p>100 Plumley Dr., Paris, TN 38242-8022, U.S.A.</p>\r\n<p><a href=\"http://www.dana.com\" target=\"_blank\"><span class=\"glyphicon glyphicon-new-window\"></span>http://www.dana.com</a></p>\r\n<div class=\"text-center\">\r\n\t \r\n</div>",
				"latitude": 36.310306549072266,
				"longitude": -88.26126861572266,
				"title": "Dana Sealing Products, LLC"
			}, {
				"body": "\r\n\r\n\r\n\r\n<h3 >Dana Light Axle Products LLC</h3>\r\n<p>2100 West State Boulevard Fort Wayne, IN 46808 USA</p>\r\n<p><a href=\"http://www.dana.com\" target=\"_blank\"><span class=\"glyphicon glyphicon-new-window\"></span>http://www.dana.com</a></p>\r\n<div class=\"text-center\">\r\n\t \r\n</div>",
				"latitude": 41.09772491455078,
				"longitude": -85.17083740234375,
				"title": "Dana Light Axle Products LLC"
			}, {
				"body": "\r\n\r\n\r\n\r\n<h3 >Dana Incorporated - Victor Reinz-North America Plant</h3>\r\n<p>1945 Ohio Street, Lisle, IL 60532 USA</p>\r\n<p><a href=\"http://www.dana.com\" target=\"_blank\"><span class=\"glyphicon glyphicon-new-window\"></span>http://www.dana.com</a></p>\r\n<div class=\"text-center\">\r\n\t \r\n</div>",
				"latitude": 41.79085159301758,
				"longitude": -88.08657836914062,
				"title": "Dana Incorporated - Victor Reinz-North America Plant"
			}, {
				"body": "\r\n\r\n\r\n\r\n<h3 >Dana Incorporated (Formerly Dana Holding Corporation)</h3>\r\n<p>3939 Technology Drive, Maumee, OH 43537, USA</p>\r\n<p><a href=\"http://www.dana.com\" target=\"_blank\"><span class=\"glyphicon glyphicon-new-window\"></span>http://www.dana.com</a></p>\r\n<div class=\"text-center\">\r\n\t \r\n</div>",
				"latitude": 41.56766128540039,
				"longitude": -83.69344329833984,
				"title": "Dana Incorporated (Formerly Dana Holding Corporation)"
			}, {
				"body": "\r\n\r\n\r\n\r\n<h3 >U.S. Manufacturing Corporation</h3>\r\n<p>28201 Van Dyke Avenue, Warren, MI 48093-2713, USA</p>\r\n<p><a href=\"http://www.usmfg.com\" target=\"_blank\"><span class=\"glyphicon glyphicon-new-window\"></span>http://www.usmfg.com</a></p>\r\n<div class=\"text-center\">\r\n\t \r\n</div>",
				"latitude": 42.500274658203125,
				"longitude": -83.02972412109375,
				"title": "U.S. Manufacturing Corporation"
			}, {
				"body": "\r\n\r\n\r\n\r\n<h3 >Dana Thermal Products LLC</h3>\r\n<p>2020 Christian B Haas Drive, Saint Clair, MI 48079, USA</p>\r\n<p><a href=\"http://www.dana.com\" target=\"_blank\"><span class=\"glyphicon glyphicon-new-window\"></span>http://www.dana.com</a></p>\r\n<div class=\"text-center\">\r\n\t \r\n</div>",
				"latitude": 42.84326934814453,
				"longitude": -82.49605560302734,
				"title": "Dana Thermal Products LLC"
			}, {
				"body": "\r\n\r\n\r\n\r\n<h3 >Dana Driveshaft Manufacturing LLC</h3>\r\n<p>777 Bible Rd, Lima, OH 45801, USA</p>\r\n<p><a href=\"http://www.dana.com\" target=\"_blank\"><span class=\"glyphicon glyphicon-new-window\"></span>http://www.dana.com</a></p>\r\n<div class=\"text-center\">\r\n\t \r\n</div>",
				"latitude": 40.775718688964844,
				"longitude": -84.09234619140625,
				"title": "Dana Driveshaft Manufacturing LLC"
			}, {
				"body": "\r\n\r\n\r\n\r\n<h3 >Dana Light Axle Products, LLC - Missouri </h3>\r\n<p>2400 Lemone Industrial Blvd Columbia, MO 65201-8263, USA</p>\r\n<p><a href=\"http://www.dana.com\" target=\"_blank\"><span class=\"glyphicon glyphicon-new-window\"></span>http://www.dana.com</a></p>\r\n<div class=\"text-center\">\r\n\t \r\n</div>",
				"latitude": 38.925018310546875,
				"longitude": -92.28952026367188,
				"title": "Dana Light Axle Products, LLC - Missouri "
			}, {
				"body": "\r\n\r\n\r\n\r\n<h3 >Dana de Mexico</h3>\r\n<p>Acceso 3 No. 7-C, Fracc. Ind. Benito Juarez, 76120 Santiago de Queretaro, Qro., Mexico</p>\r\n<p><a href=\"http://www.dana.com\" target=\"_blank\"><span class=\"glyphicon glyphicon-new-window\"></span>http://www.dana.com</a></p>\r\n<div class=\"text-center\">\r\n\t \r\n</div>",
				"latitude": 20.62407875061035,
				"longitude": -100.43199157714844,
				"title": "Dana de Mexico"
			}
		],
		"2016 rank": "44",
		"2017 Rank": "36",
		"2017 Sales": "7,209",
		"2016 Sales": "5,826",
		"Import ID": "A020",
		"Products": ["Axles", " driveshafts", " sealing ", " thermal management products"],
		"Marker Colour": "yellow"
	},
	"A023": {
		"Company": "Dow Automotive/Related Businesses",
		"Corporate_Location_Lat": ,
		"Corporate_Location_Lon": ,
		"Locations": [{
				"body": "\r\n\r\n\r\n\r\n<h3 >Trelleborg Sealing Solutions Mexico SA de CV</h3>\r\n<p>Viena 22, Colonia Juarez, CP 06600, Cuauhtemoc, D.F., Mexico</p>\r\n<p><a href=\"http://www.tss.trelleborg.com\" target=\"_blank\"><span class=\"glyphicon glyphicon-new-window\"></span>http://www.tss.trelleborg.com</a></p>\r\n<div class=\"text-center\">\r\n\t \r\n</div>",
				"latitude": 19.429832458496094,
				"longitude": -99.15789794921875,
				"title": "Trelleborg Sealing Solutions Mexico SA de CV"
			}, {
				"body": "\r\n\r\n\r\n\r\n<h3 >The Dow Chemical Company</h3>\r\n<p>2030 Dow Center, Midland, MI 48674, USA</p>\r\n<p><a href=\"http://www.dow.com\" target=\"_blank\"><span class=\"glyphicon glyphicon-new-window\"></span>http://www.dow.com</a></p>\r\n<div class=\"text-center\">\r\n\t \r\n</div>",
				"latitude": 43.61613082885742,
				"longitude": -84.20025634765625,
				"title": "The Dow Chemical Company"
			},